[
  {
    "Saguache": {
      "sub_num": "109",
      "name": "Saguache",
      "bbox": {
        "minLon": -107.001892,
        "minLat": 37.747809,
        "maxLon": -105.428647,
        "maxLat": 38.458267
      },
      "subdivisions": [
        {
          "sub_num": "90551",
          "name": "Center",
          "bbox": {
            "minLon": -106.693845,
            "minLat": 37.747809,
            "maxLon": -105.809327,
            "maxLat": 37.971602
          }
        },
        {
          "sub_num": "93135",
          "name": "Saguache",
          "bbox": {
            "minLon": -106.871403,
            "minLat": 37.750451,
            "maxLon": -105.428647,
            "maxLat": 38.458267
          }
        },
        {
          "sub_num": "90684",
          "name": "Cochetopa",
          "bbox": {
            "minLon": -107.001892,
            "minLat": 37.941894,
            "maxLon": -106.237118,
            "maxLat": 38.425619
          }
        }
      ]
    }
  },
  {
    "Sedgwick": {
      "sub_num": "115",
      "name": "Sedgwick",
      "bbox": {
        "minLon": -102.653488,
        "minLat": 40.748896,
        "maxLon": -102.051392,
        "maxLat": 41.002597
      },
      "subdivisions": [
        {
          "sub_num": "93450",
          "name": "South Sedgwick",
          "bbox": {
            "minLon": -102.652114,
            "minLat": 40.748896,
            "maxLon": -102.051392,
            "maxLat": 41.002488
          }
        },
        {
          "sub_num": "91900",
          "name": "Julesburg",
          "bbox": {
            "minLon": -102.653488,
            "minLat": 40.882792,
            "maxLon": -102.209083,
            "maxLat": 41.002597
          }
        }
      ]
    }
  },
  {
    "Cheyenne": {
      "sub_num": "017",
      "name": "Cheyenne",
      "bbox": {
        "minLon": -103.172943,
        "minLat": 38.61245,
        "maxLon": -102.044792,
        "maxLat": 39.047082
      },
      "subdivisions": [
        {
          "sub_num": "92014",
          "name": "Kit Carson",
          "bbox": {
            "minLon": -103.172943,
            "minLat": 38.61245,
            "maxLon": -102.535074,
            "maxLat": 39.04069
          }
        },
        {
          "sub_num": "90646",
          "name": "Cheyenne Wells",
          "bbox": {
            "minLon": -102.576851,
            "minLat": 38.61343,
            "maxLon": -102.044792,
            "maxLat": 39.047082
          }
        }
      ]
    }
  },
  {
    "Custer": {
      "sub_num": "027",
      "name": "Custer",
      "bbox": {
        "minLon": -105.796897,
        "minLat": 37.889703,
        "maxLon": -105.048287,
        "maxLat": 38.265191
      },
      "subdivisions": [
        {
          "sub_num": "93819",
          "name": "Westcliffe",
          "bbox": {
            "minLon": -105.796897,
            "minLat": 37.889703,
            "maxLon": -105.048287,
            "maxLat": 38.265191
          }
        }
      ]
    }
  },
  {
    "La Plata": {
      "sub_num": "067",
      "name": "La Plata",
      "bbox": {
        "minLon": -108.381069,
        "minLat": 36.999606,
        "maxLon": -107.481424,
        "maxLat": 37.64033
      },
      "subdivisions": [
        {
          "sub_num": "91862",
          "name": "Ignacio",
          "bbox": {
            "minLon": -107.751655,
            "minLat": 36.999921,
            "maxLon": -107.481424,
            "maxLat": 37.215023
          }
        },
        {
          "sub_num": "91083",
          "name": "Durango",
          "bbox": {
            "minLon": -108.295164,
            "minLat": 37.212634,
            "maxLon": -107.557118,
            "maxLat": 37.64033
          }
        },
        {
          "sub_num": "91102",
          "name": "Durango Southwest",
          "bbox": {
            "minLon": -108.381069,
            "minLat": 36.999606,
            "maxLon": -107.7124,
            "maxLat": 37.215057
          }
        },
        {
          "sub_num": "90266",
          "name": "Bayfield",
          "bbox": {
            "minLon": -107.798444,
            "minLat": 37.214262,
            "maxLon": -107.481882,
            "maxLat": 37.639632
          }
        }
      ]
    }
  },
  {
    "San Juan": {
      "sub_num": "111",
      "name": "San Juan",
      "bbox": {
        "minLon": -107.97506,
        "minLat": 37.639478,
        "maxLon": -107.458114,
        "maxLat": 37.965015
      },
      "subdivisions": [
        {
          "sub_num": "93306",
          "name": "Silverton",
          "bbox": {
            "minLon": -107.97506,
            "minLat": 37.639478,
            "maxLon": -107.458114,
            "maxLat": 37.965015
          }
        }
      ]
    }
  },
  {
    "Pitkin": {
      "sub_num": "097",
      "name": "Pitkin",
      "bbox": {
        "minLon": -107.465957,
        "minLat": 38.97772,
        "maxLon": -106.426487,
        "maxLat": 39.366301
      },
      "subdivisions": [
        {
          "sub_num": "93344",
          "name": "Snowmass Village",
          "bbox": {
            "minLon": -107.465957,
            "minLat": 38.999184,
            "maxLon": -106.849315,
            "maxLat": 39.366301
          }
        },
        {
          "sub_num": "90171",
          "name": "Aspen",
          "bbox": {
            "minLon": -106.980961,
            "minLat": 38.97772,
            "maxLon": -106.426487,
            "maxLat": 39.365643
          }
        }
      ]
    }
  },
  {
    "Park": {
      "sub_num": "093",
      "name": "Park",
      "bbox": {
        "minLon": -106.210173,
        "minLat": 38.693089,
        "maxLon": -105.328743,
        "maxLat": 39.568197
      },
      "subdivisions": [
        {
          "sub_num": "91254",
          "name": "Fairplay",
          "bbox": {
            "minLon": -106.210173,
            "minLat": 38.910089,
            "maxLon": -105.396712,
            "maxLat": 39.568197
          }
        },
        {
          "sub_num": "92128",
          "name": "Lake George",
          "bbox": {
            "minLon": -105.979783,
            "minLat": 38.693089,
            "maxLon": -105.328743,
            "maxLat": 39.169388
          }
        }
      ]
    }
  },
  {
    "Alamosa": {
      "sub_num": "003",
      "name": "Alamosa",
      "bbox": {
        "minLon": -106.039397,
        "minLat": 37.3562,
        "maxLon": -105.452727,
        "maxLat": 37.752306
      },
      "subdivisions": [
        {
          "sub_num": "90076",
          "name": "Alamosa",
          "bbox": {
            "minLon": -106.039397,
            "minLat": 37.3562,
            "maxLon": -105.485516,
            "maxLat": 37.600468
          }
        },
        {
          "sub_num": "92584",
          "name": "Mosca-Hooper",
          "bbox": {
            "minLon": -106.039302,
            "minLat": 37.517678,
            "maxLon": -105.452727,
            "maxLat": 37.752306
          }
        }
      ]
    }
  },
  {
    "Prowers": {
      "sub_num": "099",
      "name": "Prowers",
      "bbox": {
        "minLon": -102.747991,
        "minLat": 37.643486,
        "maxLon": -102.041582,
        "maxLat": 38.268774
      },
      "subdivisions": [
        {
          "sub_num": "92147",
          "name": "Lamar",
          "bbox": {
            "minLon": -102.742434,
            "minLat": 38.006128,
            "maxLon": -102.47542,
            "maxLat": 38.267969
          }
        },
        {
          "sub_num": "91558",
          "name": "Granada",
          "bbox": {
            "minLon": -102.494991,
            "minLat": 37.998617,
            "maxLon": -102.210544,
            "maxLat": 38.268279
          }
        },
        {
          "sub_num": "93667",
          "name": "Two Butte Creek",
          "bbox": {
            "minLon": -102.747991,
            "minLat": 37.643486,
            "maxLon": -102.041582,
            "maxLat": 38.082904
          }
        },
        {
          "sub_num": "91748",
          "name": "Holly",
          "bbox": {
            "minLon": -102.2938,
            "minLat": 38.030195,
            "maxLon": -102.044251,
            "maxLat": 38.268774
          }
        }
      ]
    }
  },
  {
    "Moffat": {
      "sub_num": "081",
      "name": "Moffat",
      "bbox": {
        "minLon": -109.051245,
        "minLat": 40.219991,
        "maxLon": -107.313365,
        "maxLat": 41.003073
      },
      "subdivisions": [
        {
          "sub_num": "90855",
          "name": "Craig",
          "bbox": {
            "minLon": -108.15112,
            "minLat": 40.219991,
            "maxLon": -107.313365,
            "maxLat": 41.003073
          }
        },
        {
          "sub_num": "92432",
          "name": "Maybell-Powder Wash",
          "bbox": {
            "minLon": -109.050026,
            "minLat": 40.3067,
            "maxLon": -107.68877,
            "maxLat": 41.002173
          }
        },
        {
          "sub_num": "91017",
          "name": "Dinosaur",
          "bbox": {
            "minLon": -109.051245,
            "minLat": 40.22167,
            "maxLon": -108.058655,
            "maxLat": 40.545834
          }
        }
      ]
    }
  },
  {
    "Jefferson": {
      "sub_num": "059",
      "name": "Jefferson",
      "bbox": {
        "minLon": -105.39915,
        "minLat": 39.129474,
        "maxLon": -105.04874,
        "maxLat": 39.914386
      },
      "subdivisions": [
        {
          "sub_num": "92641",
          "name": "Northeast Jefferson",
          "bbox": {
            "minLon": -105.24113,
            "minLat": 39.549499,
            "maxLon": -105.052825,
            "maxLat": 39.914386
          }
        },
        {
          "sub_num": "90589",
          "name": "Central Jefferson",
          "bbox": {
            "minLon": -105.39915,
            "minLat": 39.52475,
            "maxLon": -105.172275,
            "maxLat": 39.717147
          }
        },
        {
          "sub_num": "93439",
          "name": "South Jefferson",
          "bbox": {
            "minLon": -105.398652,
            "minLat": 39.129474,
            "maxLon": -105.04874,
            "maxLat": 39.633263
          }
        },
        {
          "sub_num": "91539",
          "name": "Golden",
          "bbox": {
            "minLon": -105.398349,
            "minLat": 39.652408,
            "maxLon": -105.169843,
            "maxLat": 39.914367
          }
        }
      ]
    }
  },
  {
    "Summit": {
      "sub_num": "117",
      "name": "Summit",
      "bbox": {
        "minLon": -106.440301,
        "minLat": 39.357378,
        "maxLon": -105.775702,
        "maxLat": 39.924914
      },
      "subdivisions": [
        {
          "sub_num": "90380",
          "name": "Breckenridge",
          "bbox": {
            "minLon": -106.259629,
            "minLat": 39.357378,
            "maxLon": -105.775702,
            "maxLat": 39.667218
          }
        },
        {
          "sub_num": "93287",
          "name": "Silverthorne",
          "bbox": {
            "minLon": -106.440301,
            "minLat": 39.601753,
            "maxLon": -105.867401,
            "maxLat": 39.924914
          }
        }
      ]
    }
  },
  {
    "Pueblo": {
      "sub_num": "101",
      "name": "Pueblo",
      "bbox": {
        "minLon": -105.050678,
        "minLat": 37.734704,
        "maxLon": -104.053921,
        "maxLat": 38.522435
      },
      "subdivisions": [
        {
          "sub_num": "92660",
          "name": "Northeast Pueblo",
          "bbox": {
            "minLon": -104.612532,
            "minLat": 38.146492,
            "maxLon": -104.053921,
            "maxLat": 38.522435
          }
        },
        {
          "sub_num": "90722",
          "name": "Colorado City-Rye",
          "bbox": {
            "minLon": -105.050148,
            "minLat": 37.881271,
            "maxLon": -104.610098,
            "maxLat": 38.151132
          }
        },
        {
          "sub_num": "93154",
          "name": "St. Charles Mesa",
          "bbox": {
            "minLon": -104.6179,
            "minLat": 38.149193,
            "maxLon": -104.459578,
            "maxLat": 38.269431
          }
        },
        {
          "sub_num": "93002",
          "name": "Pueblo West",
          "bbox": {
            "minLon": -104.941533,
            "minLat": 38.259034,
            "maxLon": -104.592108,
            "maxLat": 38.5203
          }
        },
        {
          "sub_num": "92983",
          "name": "Pueblo",
          "bbox": {
            "minLon": -105.050678,
            "minLat": 37.982655,
            "maxLon": -104.445434,
            "maxLat": 38.43564
          }
        },
        {
          "sub_num": "91805",
          "name": "Huerfano Valley",
          "bbox": {
            "minLon": -104.667555,
            "minLat": 37.734704,
            "maxLon": -104.057995,
            "maxLat": 38.233713
          }
        },
        {
          "sub_num": "90209",
          "name": "Avondale",
          "bbox": {
            "minLon": -104.534522,
            "minLat": 38.160932,
            "maxLon": -104.254731,
            "maxLat": 38.267299
          }
        }
      ]
    }
  },
  {
    "Boulder": {
      "sub_num": "013",
      "name": "Boulder",
      "bbox": {
        "minLon": -105.694362,
        "minLat": 39.912886,
        "maxLon": -105.052774,
        "maxLat": 40.262785
      },
      "subdivisions": [
        {
          "sub_num": "92052",
          "name": "Lafayette-Louisville",
          "bbox": {
            "minLon": -105.178269,
            "minLat": 39.913885,
            "maxLon": -105.052774,
            "maxLat": 40.072974
          }
        },
        {
          "sub_num": "92318",
          "name": "Longmont",
          "bbox": {
            "minLon": -105.357241,
            "minLat": 40.069364,
            "maxLon": -105.054923,
            "maxLat": 40.262785
          }
        },
        {
          "sub_num": "93686",
          "name": "Upper St. Vrain",
          "bbox": {
            "minLon": -105.677751,
            "minLat": 40.060835,
            "maxLon": -105.299514,
            "maxLat": 40.261784
          }
        },
        {
          "sub_num": "90342",
          "name": "Boulder",
          "bbox": {
            "minLon": -105.339324,
            "minLat": 39.913687,
            "maxLon": -105.130992,
            "maxLat": 40.116248
          }
        },
        {
          "sub_num": "90228",
          "name": "Bald Mountain",
          "bbox": {
            "minLon": -105.694362,
            "minLat": 39.912886,
            "maxLon": -105.28158,
            "maxLat": 40.139641
          }
        }
      ]
    }
  },
  {
    "Denver": {
      "sub_num": "031",
      "name": "Denver",
      "bbox": {
        "minLon": -105.109924,
        "minLat": 39.614311,
        "maxLon": -104.599581,
        "maxLat": 39.914178
      },
      "subdivisions": [
        {
          "sub_num": "91007",
          "name": "Denver",
          "bbox": {
            "minLon": -105.109924,
            "minLat": 39.614311,
            "maxLon": -104.599581,
            "maxLat": 39.914178
          }
        }
      ]
    }
  },
  {
    "Montrose": {
      "sub_num": "085",
      "name": "Montrose",
      "bbox": {
        "minLon": -109.060204,
        "minLat": 38.152228,
        "maxLon": -107.50002,
        "maxLat": 38.668568
      },
      "subdivisions": [
        {
          "sub_num": "92546",
          "name": "Montrose",
          "bbox": {
            "minLon": -108.18762,
            "minLat": 38.2729,
            "maxLon": -107.50002,
            "maxLat": 38.593716
          }
        },
        {
          "sub_num": "92736",
          "name": "Olathe",
          "bbox": {
            "minLon": -108.583682,
            "minLat": 38.31776,
            "maxLon": -107.50061,
            "maxLat": 38.668568
          }
        },
        {
          "sub_num": "92698",
          "name": "Nucla",
          "bbox": {
            "minLon": -109.060204,
            "minLat": 38.152228,
            "maxLon": -107.937588,
            "maxLat": 38.500028
          }
        }
      ]
    }
  },
  {
    "Eagle": {
      "sub_num": "037",
      "name": "Eagle",
      "bbox": {
        "minLon": -107.113947,
        "minLat": 39.349469,
        "maxLon": -106.17592,
        "maxLat": 39.925292
      },
      "subdivisions": [
        {
          "sub_num": "92489",
          "name": "Minturn-Red Cliff",
          "bbox": {
            "minLon": -106.685997,
            "minLat": 39.349469,
            "maxLon": -106.17592,
            "maxLat": 39.787682
          }
        },
        {
          "sub_num": "91140",
          "name": "Eagle-Gypsum",
          "bbox": {
            "minLon": -107.113947,
            "minLat": 39.42982,
            "maxLon": -106.363793,
            "maxLat": 39.925292
          }
        },
        {
          "sub_num": "90247",
          "name": "Basalt",
          "bbox": {
            "minLon": -107.113664,
            "minLat": 39.362007,
            "maxLon": -106.509214,
            "maxLat": 39.532855
          }
        }
      ]
    }
  },
  {
    "San Miguel": {
      "sub_num": "113",
      "name": "San Miguel",
      "bbox": {
        "minLon": -109.042947,
        "minLat": 37.773556,
        "maxLon": -107.732787,
        "maxLat": 38.154959
      },
      "subdivisions": [
        {
          "sub_num": "93844",
          "name": "West San Miguel",
          "bbox": {
            "minLon": -109.042947,
            "minLat": 37.880851,
            "maxLon": -108.321888,
            "maxLat": 38.154959
          }
        },
        {
          "sub_num": "93591",
          "name": "Telluride",
          "bbox": {
            "minLon": -108.199183,
            "minLat": 37.773556,
            "maxLon": -107.732787,
            "maxLat": 38.152703
          }
        },
        {
          "sub_num": "92679",
          "name": "Norwood",
          "bbox": {
            "minLon": -108.652276,
            "minLat": 37.820936,
            "maxLon": -108.027929,
            "maxLat": 38.153302
          }
        }
      ]
    }
  },
  {
    "Costilla": {
      "sub_num": "023",
      "name": "Costilla",
      "bbox": {
        "minLon": -105.771391,
        "minLat": 36.994974,
        "maxLon": -105.12972,
        "maxLat": 37.658305
      },
      "subdivisions": [
        {
          "sub_num": "93192",
          "name": "San Luis",
          "bbox": {
            "minLon": -105.771391,
            "minLat": 36.994974,
            "maxLon": -105.154176,
            "maxLat": 37.363231
          }
        },
        {
          "sub_num": "90323",
          "name": "Blanca",
          "bbox": {
            "minLon": -105.753278,
            "minLat": 37.268213,
            "maxLon": -105.12972,
            "maxLat": 37.658305
          }
        }
      ]
    }
  },
  {
    "Broomfield": {
      "sub_num": "014",
      "name": "Broomfield",
      "bbox": {
        "minLon": -105.166056,
        "minLat": 39.889212,
        "maxLon": -104.961071,
        "maxLat": 40.044144
      },
      "subdivisions": [
        {
          "sub_num": "90408",
          "name": "Broomfield",
          "bbox": {
            "minLon": -105.166056,
            "minLat": 39.889212,
            "maxLon": -104.961071,
            "maxLat": 40.044144
          }
        }
      ]
    }
  },
  {
    "Chaffee": {
      "sub_num": "015",
      "name": "Chaffee",
      "bbox": {
        "minLon": -106.599516,
        "minLat": 38.422092,
        "maxLon": -105.878033,
        "maxLat": 39.057908
      },
      "subdivisions": [
        {
          "sub_num": "90437",
          "name": "Buena Vista",
          "bbox": {
            "minLon": -106.599516,
            "minLat": 38.690348,
            "maxLon": -105.906585,
            "maxLat": 39.057908
          }
        },
        {
          "sub_num": "93173",
          "name": "Salida",
          "bbox": {
            "minLon": -106.451867,
            "minLat": 38.422092,
            "maxLon": -105.878033,
            "maxLat": 38.773641
          }
        }
      ]
    }
  },
  {
    "Crowley": {
      "sub_num": "025",
      "name": "Crowley",
      "bbox": {
        "minLon": -104.058488,
        "minLat": 38.112437,
        "maxLon": -103.501387,
        "maxLat": 38.52333
      },
      "subdivisions": [
        {
          "sub_num": "93553",
          "name": "Sugar City",
          "bbox": {
            "minLon": -103.74892,
            "minLat": 38.112906,
            "maxLon": -103.501387,
            "maxLat": 38.522617
          }
        },
        {
          "sub_num": "92755",
          "name": "Ordway",
          "bbox": {
            "minLon": -104.058488,
            "minLat": 38.112437,
            "maxLon": -103.70475,
            "maxLat": 38.52333
          }
        }
      ]
    }
  },
  {
    "Fremont": {
      "sub_num": "043",
      "name": "Fremont",
      "bbox": {
        "minLon": -106.012789,
        "minLat": 38.257548,
        "maxLon": -104.940366,
        "maxLat": 38.697581
      },
      "subdivisions": [
        {
          "sub_num": "91311",
          "name": "Florence",
          "bbox": {
            "minLon": -105.28839,
            "minLat": 38.257548,
            "maxLon": -105.053041,
            "maxLat": 38.442603
          }
        },
        {
          "sub_num": "92888",
          "name": "Penrose-Portland",
          "bbox": {
            "minLon": -105.13441,
            "minLat": 38.257819,
            "maxLon": -104.940366,
            "maxLat": 38.652729
          }
        },
        {
          "sub_num": "90836",
          "name": "Cotopaxi",
          "bbox": {
            "minLon": -106.012789,
            "minLat": 38.259391,
            "maxLon": -105.190414,
            "maxLat": 38.697581
          }
        },
        {
          "sub_num": "90494",
          "name": "Ca\u00c3\u00b1on City",
          "bbox": {
            "minLon": -105.38,
            "minLat": 38.258225,
            "maxLon": -105.08497,
            "maxLat": 38.648153
          }
        }
      ]
    }
  },
  {
    "Huerfano": {
      "sub_num": "055",
      "name": "Huerfano",
      "bbox": {
        "minLon": -105.501755,
        "minLat": 37.289117,
        "maxLon": -104.351109,
        "maxLat": 38.018946
      },
      "subdivisions": [
        {
          "sub_num": "92204",
          "name": "La Veta",
          "bbox": {
            "minLon": -105.218433,
            "minLat": 37.289117,
            "maxLon": -104.819254,
            "maxLat": 37.693695
          }
        },
        {
          "sub_num": "93743",
          "name": "Walsenburg",
          "bbox": {
            "minLon": -105.050599,
            "minLat": 37.385817,
            "maxLon": -104.351109,
            "maxLat": 37.900527
          }
        },
        {
          "sub_num": "91444",
          "name": "Gardner",
          "bbox": {
            "minLon": -105.501755,
            "minLat": 37.577899,
            "maxLon": -104.99384,
            "maxLat": 38.018946
          }
        }
      ]
    }
  },
  {
    "Delta": {
      "sub_num": "029",
      "name": "Delta",
      "bbox": {
        "minLon": -108.378999,
        "minLat": 38.66798,
        "maxLon": -107.500553,
        "maxLat": 39.217926
      },
      "subdivisions": [
        {
          "sub_num": "90532",
          "name": "Cedaredge",
          "bbox": {
            "minLon": -108.230514,
            "minLat": 38.768222,
            "maxLon": -107.775095,
            "maxLat": 39.080165
          }
        },
        {
          "sub_num": "92831",
          "name": "Paonia",
          "bbox": {
            "minLon": -107.729349,
            "minLat": 38.786746,
            "maxLon": -107.500553,
            "maxLat": 39.217926
          }
        },
        {
          "sub_num": "91786",
          "name": "Hotchkiss",
          "bbox": {
            "minLon": -107.943993,
            "minLat": 38.66798,
            "maxLon": -107.500602,
            "maxLat": 39.066275
          }
        },
        {
          "sub_num": "90988",
          "name": "Delta",
          "bbox": {
            "minLon": -108.378999,
            "minLat": 38.668097,
            "maxLon": -107.828481,
            "maxLat": 38.884344
          }
        }
      ]
    }
  },
  {
    "Garfield": {
      "sub_num": "045",
      "name": "Garfield",
      "bbox": {
        "minLon": -109.051459,
        "minLat": 39.365859,
        "maxLon": -107.031772,
        "maxLat": 40.091538
      },
      "subdivisions": [
        {
          "sub_num": "93097",
          "name": "Rifle",
          "bbox": {
            "minLon": -108.009214,
            "minLat": 39.366195,
            "maxLon": -107.578378,
            "maxLat": 39.830107
          }
        },
        {
          "sub_num": "93832",
          "name": "West Garfield",
          "bbox": {
            "minLon": -109.051459,
            "minLat": 39.365951,
            "maxLon": -107.880814,
            "maxLat": 39.701848
          }
        },
        {
          "sub_num": "91520",
          "name": "Glenwood Springs",
          "bbox": {
            "minLon": -107.476532,
            "minLat": 39.365859,
            "maxLon": -107.031772,
            "maxLat": 40.091538
          }
        },
        {
          "sub_num": "92603",
          "name": "New Castle",
          "bbox": {
            "minLon": -107.753513,
            "minLat": 39.366046,
            "maxLon": -107.381131,
            "maxLat": 39.82874
          }
        }
      ]
    }
  },
  {
    "Rio Blanco": {
      "sub_num": "103",
      "name": "Rio Blanco",
      "bbox": {
        "minLon": -109.051316,
        "minLat": 39.649712,
        "maxLon": -107.037363,
        "maxLat": 40.226062
      },
      "subdivisions": [
        {
          "sub_num": "92451",
          "name": "Meeker",
          "bbox": {
            "minLon": -108.62597,
            "minLat": 39.68509,
            "maxLon": -107.037363,
            "maxLat": 40.226062
          }
        },
        {
          "sub_num": "93040",
          "name": "Rangely",
          "bbox": {
            "minLon": -109.051316,
            "minLat": 39.649712,
            "maxLon": -108.216503,
            "maxLat": 40.222822
          }
        }
      ]
    }
  },
  {
    "Morgan": {
      "sub_num": "087",
      "name": "Morgan",
      "bbox": {
        "minLon": -104.150538,
        "minLat": 40.000836,
        "maxLon": -103.464455,
        "maxLat": 40.524419
      },
      "subdivisions": [
        {
          "sub_num": "93781",
          "name": "Weldona",
          "bbox": {
            "minLon": -104.150538,
            "minLat": 40.305191,
            "maxLon": -103.863406,
            "maxLat": 40.524419
          }
        },
        {
          "sub_num": "93876",
          "name": "Wiggins",
          "bbox": {
            "minLon": -104.150334,
            "minLat": 40.000836,
            "maxLon": -103.863253,
            "maxLat": 40.354224
          }
        },
        {
          "sub_num": "91368",
          "name": "Fort Morgan",
          "bbox": {
            "minLon": -103.985771,
            "minLat": 40.001215,
            "maxLon": -103.668731,
            "maxLat": 40.524175
          }
        },
        {
          "sub_num": "90418",
          "name": "Brush",
          "bbox": {
            "minLon": -103.792701,
            "minLat": 40.001118,
            "maxLon": -103.464455,
            "maxLat": 40.523394
          }
        }
      ]
    }
  },
  {
    "Lincoln": {
      "sub_num": "073",
      "name": "Lincoln",
      "bbox": {
        "minLon": -104.055539,
        "minLat": 38.516409,
        "maxLon": -103.154376,
        "maxLat": 39.56657
      },
      "subdivisions": [
        {
          "sub_num": "91919",
          "name": "Karval",
          "bbox": {
            "minLon": -104.055539,
            "minLat": 38.516409,
            "maxLon": -103.163402,
            "maxLat": 38.937216
          }
        },
        {
          "sub_num": "92261",
          "name": "Limon",
          "bbox": {
            "minLon": -103.715458,
            "minLat": 39.124128,
            "maxLon": -103.434871,
            "maxLat": 39.566366
          }
        },
        {
          "sub_num": "90133",
          "name": "Arriba",
          "bbox": {
            "minLon": -103.49145,
            "minLat": 39.278368,
            "maxLon": -103.154376,
            "maxLat": 39.56657
          }
        },
        {
          "sub_num": "91824",
          "name": "Hugo",
          "bbox": {
            "minLon": -103.722007,
            "minLat": 38.849142,
            "maxLon": -103.154927,
            "maxLat": 39.286981
          }
        }
      ]
    }
  },
  {
    "Montezuma": {
      "sub_num": "083",
      "name": "Montezuma",
      "bbox": {
        "minLon": -109.045924,
        "minLat": 36.998838,
        "maxLon": -107.969923,
        "maxLat": 37.639587
      },
      "subdivisions": [
        {
          "sub_num": "92394",
          "name": "Mancos",
          "bbox": {
            "minLon": -108.554659,
            "minLat": 37.15643,
            "maxLon": -108.038261,
            "maxLat": 37.528905
          }
        },
        {
          "sub_num": "93705",
          "name": "Ute Mountain",
          "bbox": {
            "minLon": -109.045924,
            "minLat": 36.998838,
            "maxLon": -108.29015,
            "maxLat": 37.340468
          }
        },
        {
          "sub_num": "91045",
          "name": "Dolores",
          "bbox": {
            "minLon": -108.694763,
            "minLat": 37.385582,
            "maxLon": -107.969923,
            "maxLat": 37.639587
          }
        },
        {
          "sub_num": "92945",
          "name": "Pleasant View",
          "bbox": {
            "minLon": -109.045776,
            "minLat": 37.32686,
            "maxLon": -108.577085,
            "maxLat": 37.632202
          }
        },
        {
          "sub_num": "90817",
          "name": "Cortez",
          "bbox": {
            "minLon": -109.045844,
            "minLat": 37.216388,
            "maxLon": -108.401105,
            "maxLat": 37.579492
          }
        }
      ]
    }
  },
  {
    "Adams": {
      "sub_num": "001",
      "name": "Adams",
      "bbox": {
        "minLon": -105.053339,
        "minLat": 39.738002,
        "maxLon": -103.705695,
        "maxLat": 40.001478
      },
      "subdivisions": [
        {
          "sub_num": "90760",
          "name": "Commerce City",
          "bbox": {
            "minLon": -104.988848,
            "minLat": 39.783764,
            "maxLon": -104.790708,
            "maxLat": 39.874236
          }
        },
        {
          "sub_num": "93800",
          "name": "West Adams",
          "bbox": {
            "minLon": -105.053339,
            "minLat": 39.791017,
            "maxLon": -104.867423,
            "maxLat": 39.957724
          }
        },
        {
          "sub_num": "92622",
          "name": "North Aurora",
          "bbox": {
            "minLon": -104.884664,
            "minLat": 39.739487,
            "maxLon": -104.582488,
            "maxLat": 39.823443
          }
        },
        {
          "sub_num": "91159",
          "name": "East Adams",
          "bbox": {
            "minLon": -104.631006,
            "minLat": 39.738002,
            "maxLon": -103.705695,
            "maxLat": 40.001478
          }
        },
        {
          "sub_num": "90399",
          "name": "Brighton",
          "bbox": {
            "minLon": -105.015845,
            "minLat": 39.841759,
            "maxLon": -104.604064,
            "maxLat": 40.000588
          }
        }
      ]
    }
  },
  {
    "Mineral": {
      "sub_num": "079",
      "name": "Mineral",
      "bbox": {
        "minLon": -107.145138,
        "minLat": 37.392304,
        "maxLon": -106.693523,
        "maxLat": 37.975039
      },
      "subdivisions": [
        {
          "sub_num": "90874",
          "name": "Creede",
          "bbox": {
            "minLon": -107.145138,
            "minLat": 37.392304,
            "maxLon": -106.693523,
            "maxLat": 37.975039
          }
        }
      ]
    }
  },
  {
    "Otero": {
      "sub_num": "089",
      "name": "Otero",
      "bbox": {
        "minLon": -104.062073,
        "minLat": 37.642936,
        "maxLon": -103.398108,
        "maxLat": 38.265508
      },
      "subdivisions": [
        {
          "sub_num": "91406",
          "name": "Fowler",
          "bbox": {
            "minLon": -104.059077,
            "minLat": 38.064222,
            "maxLon": -103.947509,
            "maxLat": 38.146654
          }
        },
        {
          "sub_num": "93116",
          "name": "Rocky Ford",
          "bbox": {
            "minLon": -103.821029,
            "minLat": 37.937903,
            "maxLon": -103.631255,
            "maxLat": 38.113214
          }
        },
        {
          "sub_num": "92090",
          "name": "La Junta",
          "bbox": {
            "minLon": -103.696548,
            "minLat": 37.92375,
            "maxLon": -103.466493,
            "maxLat": 38.031009
          }
        },
        {
          "sub_num": "93629",
          "name": "Timpas",
          "bbox": {
            "minLon": -104.062073,
            "minLat": 37.642936,
            "maxLon": -103.398108,
            "maxLat": 38.111217
          }
        },
        {
          "sub_num": "90608",
          "name": "Cheraw",
          "bbox": {
            "minLon": -103.688129,
            "minLat": 37.989551,
            "maxLon": -103.398476,
            "maxLat": 38.265508
          }
        },
        {
          "sub_num": "92413",
          "name": "Manzanola",
          "bbox": {
            "minLon": -104.011617,
            "minLat": 38.009452,
            "maxLon": -103.786489,
            "maxLat": 38.134864
          }
        }
      ]
    }
  },
  {
    "Phillips": {
      "sub_num": "095",
      "name": "Phillips",
      "bbox": {
        "minLon": -102.665595,
        "minLat": 40.438466,
        "maxLon": -102.051274,
        "maxLat": 40.749827
      },
      "subdivisions": [
        {
          "sub_num": "91767",
          "name": "Holyoke",
          "bbox": {
            "minLon": -102.398357,
            "minLat": 40.439485,
            "maxLon": -102.051274,
            "maxLat": 40.749827
          }
        },
        {
          "sub_num": "91710",
          "name": "Haxtun",
          "bbox": {
            "minLon": -102.665595,
            "minLat": 40.438466,
            "maxLon": -102.375904,
            "maxLat": 40.749529
          }
        }
      ]
    }
  },
  {
    "Ouray": {
      "sub_num": "091",
      "name": "Ouray",
      "bbox": {
        "minLon": -108.13238,
        "minLat": 37.892007,
        "maxLon": -107.51088,
        "maxLat": 38.332778
      },
      "subdivisions": [
        {
          "sub_num": "92793",
          "name": "Ouray",
          "bbox": {
            "minLon": -108.13238,
            "minLat": 37.892007,
            "maxLon": -107.51088,
            "maxLat": 38.332778
          }
        }
      ]
    }
  },
  {
    "Bent": {
      "sub_num": "011",
      "name": "Bent",
      "bbox": {
        "minLon": -103.404426,
        "minLat": 37.643272,
        "maxLon": -102.740346,
        "maxLat": 38.267796
      },
      "subdivisions": [
        {
          "sub_num": "92356",
          "name": "McClave",
          "bbox": {
            "minLon": -103.163013,
            "minLat": 38.061779,
            "maxLon": -102.741676,
            "maxLat": 38.267796
          }
        },
        {
          "sub_num": "93388",
          "name": "South Bent",
          "bbox": {
            "minLon": -103.404426,
            "minLat": 37.643272,
            "maxLon": -102.740346,
            "maxLat": 38.09656
          }
        },
        {
          "sub_num": "92185",
          "name": "Las Animas",
          "bbox": {
            "minLon": -103.399986,
            "minLat": 38.007887,
            "maxLon": -103.031783,
            "maxLat": 38.266026
          }
        }
      ]
    }
  },
  {
    "Archuleta": {
      "sub_num": "007",
      "name": "Archuleta",
      "bbox": {
        "minLon": -107.482409,
        "minLat": 36.992449,
        "maxLon": -106.47609,
        "maxLat": 37.423623
      },
      "subdivisions": [
        {
          "sub_num": "92812",
          "name": "Pagosa Springs",
          "bbox": {
            "minLon": -107.254969,
            "minLat": 36.992449,
            "maxLon": -106.47609,
            "maxLat": 37.422953
          }
        },
        {
          "sub_num": "90114",
          "name": "Arboles",
          "bbox": {
            "minLon": -107.482409,
            "minLat": 37.00001,
            "maxLon": -107.112169,
            "maxLat": 37.423623
          }
        }
      ]
    }
  },
  {
    "Routt": {
      "sub_num": "107",
      "name": "Routt",
      "bbox": {
        "minLon": -107.442594,
        "minLat": 39.918671,
        "maxLon": -106.626112,
        "maxLat": 41.003444
      },
      "subdivisions": [
        {
          "sub_num": "91729",
          "name": "Hayden",
          "bbox": {
            "minLon": -107.442594,
            "minLat": 40.223346,
            "maxLon": -106.805345,
            "maxLat": 41.003444
          }
        },
        {
          "sub_num": "93933",
          "name": "Yampa",
          "bbox": {
            "minLon": -107.038401,
            "minLat": 39.918671,
            "maxLon": -106.626112,
            "maxLat": 40.227788
          }
        },
        {
          "sub_num": "92717",
          "name": "Oak Creek",
          "bbox": {
            "minLon": -107.171979,
            "minLat": 40.103322,
            "maxLon": -106.63225,
            "maxLat": 40.426303
          }
        },
        {
          "sub_num": "93496",
          "name": "Steamboat Springs",
          "bbox": {
            "minLon": -107.135801,
            "minLat": 40.34871,
            "maxLon": -106.635476,
            "maxLat": 40.907042
          }
        }
      ]
    }
  },
  {
    "Hinsdale": {
      "sub_num": "053",
      "name": "Hinsdale",
      "bbox": {
        "minLon": -107.591367,
        "minLat": 37.422673,
        "maxLon": -107.000602,
        "maxLat": 38.147267
      },
      "subdivisions": [
        {
          "sub_num": "92109",
          "name": "Lake City",
          "bbox": {
            "minLon": -107.591367,
            "minLat": 37.422673,
            "maxLon": -107.000602,
            "maxLat": 38.147267
          }
        }
      ]
    }
  },
  {
    "Weld": {
      "sub_num": "123",
      "name": "Weld",
      "bbox": {
        "minLon": -105.05672,
        "minLat": 40.000251,
        "maxLon": -103.573216,
        "maxLat": 41.001905
      },
      "subdivisions": [
        {
          "sub_num": "91938",
          "name": "Keenesburg-Hudson",
          "bbox": {
            "minLon": -104.75786,
            "minLat": 40.00047,
            "maxLon": -104.1498,
            "maxLat": 40.350006
          }
        },
        {
          "sub_num": "91349",
          "name": "Fort Lupton",
          "bbox": {
            "minLon": -104.88781,
            "minLat": 40.000355,
            "maxLon": -104.753728,
            "maxLat": 40.152714
          }
        },
        {
          "sub_num": "91957",
          "name": "Kersey-Gill",
          "bbox": {
            "minLon": -104.658654,
            "minLat": 40.275991,
            "maxLon": -104.146523,
            "maxLat": 40.639643
          }
        },
        {
          "sub_num": "91216",
          "name": "Erie-Frederick",
          "bbox": {
            "minLon": -105.055569,
            "minLat": 40.000251,
            "maxLon": -104.885711,
            "maxLat": 40.184585
          }
        },
        {
          "sub_num": "91653",
          "name": "Grover",
          "bbox": {
            "minLon": -104.542264,
            "minLat": 40.638539,
            "maxLon": -104.009756,
            "maxLat": 41.001887
          }
        },
        {
          "sub_num": "93059",
          "name": "Raymer",
          "bbox": {
            "minLon": -104.335113,
            "minLat": 40.522018,
            "maxLon": -103.573216,
            "maxLat": 41.001905
          }
        },
        {
          "sub_num": "92926",
          "name": "Platteville",
          "bbox": {
            "minLon": -104.941802,
            "minLat": 40.145244,
            "maxLon": -104.602356,
            "maxLat": 40.276126
          }
        },
        {
          "sub_num": "90190",
          "name": "Ault",
          "bbox": {
            "minLon": -104.944121,
            "minLat": 40.538617,
            "maxLon": -104.467672,
            "maxLat": 41.001696
          }
        },
        {
          "sub_num": "91634",
          "name": "Greeley",
          "bbox": {
            "minLon": -104.816303,
            "minLat": 40.333902,
            "maxLon": -104.563297,
            "maxLat": 40.555341
          }
        },
        {
          "sub_num": "92166",
          "name": "La Salle-Gilcrest",
          "bbox": {
            "minLon": -104.873679,
            "minLat": 40.26073,
            "maxLon": -104.602098,
            "maxLat": 40.377537
          }
        },
        {
          "sub_num": "93895",
          "name": "Windsor",
          "bbox": {
            "minLon": -104.944568,
            "minLat": 40.40679,
            "maxLon": -104.773315,
            "maxLat": 40.581572
          }
        },
        {
          "sub_num": "91881",
          "name": "Johnstown-Milliken",
          "bbox": {
            "minLon": -105.05672,
            "minLat": 40.149591,
            "maxLon": -104.759623,
            "maxLat": 40.421554
          }
        }
      ]
    }
  },
  {
    "Larimer": {
      "sub_num": "069",
      "name": "Larimer",
      "bbox": {
        "minLon": -106.195438,
        "minLat": 40.257784,
        "maxLon": -104.943052,
        "maxLat": 40.99844
      },
      "subdivisions": [
        {
          "sub_num": "90285",
          "name": "Berthoud",
          "bbox": {
            "minLon": -105.243776,
            "minLat": 40.261083,
            "maxLon": -105.055079,
            "maxLat": 40.384521
          }
        },
        {
          "sub_num": "92299",
          "name": "Livermore",
          "bbox": {
            "minLon": -106.195438,
            "minLat": 40.476829,
            "maxLon": -105.170505,
            "maxLat": 40.997804
          }
        },
        {
          "sub_num": "91330",
          "name": "Fort Collins",
          "bbox": {
            "minLon": -105.262951,
            "minLat": 40.464725,
            "maxLon": -104.991812,
            "maxLat": 40.708264
          }
        },
        {
          "sub_num": "92337",
          "name": "Loveland",
          "bbox": {
            "minLon": -105.449929,
            "minLat": 40.261895,
            "maxLon": -104.944116,
            "maxLat": 40.575193
          }
        },
        {
          "sub_num": "91235",
          "name": "Estes Park",
          "bbox": {
            "minLon": -105.822463,
            "minLat": 40.257784,
            "maxLon": -105.282982,
            "maxLat": 40.553713
          }
        },
        {
          "sub_num": "93610",
          "name": "Timnath-Wellington",
          "bbox": {
            "minLon": -105.412721,
            "minLat": 40.464723,
            "maxLon": -104.943052,
            "maxLat": 40.99844
          }
        }
      ]
    }
  },
  {
    "Lake": {
      "sub_num": "065",
      "name": "Lake",
      "bbox": {
        "minLon": -106.586338,
        "minLat": 39.056073,
        "maxLon": -106.135529,
        "maxLat": 39.381008
      },
      "subdivisions": [
        {
          "sub_num": "92242",
          "name": "Leadville North",
          "bbox": {
            "minLon": -106.504601,
            "minLat": 39.247272,
            "maxLon": -106.135529,
            "maxLat": 39.381008
          }
        },
        {
          "sub_num": "92223",
          "name": "Leadville",
          "bbox": {
            "minLon": -106.586338,
            "minLat": 39.056073,
            "maxLon": -106.168304,
            "maxLat": 39.280666
          }
        }
      ]
    }
  },
  {
    "Rio Grande": {
      "sub_num": "105",
      "name": "Rio Grande",
      "bbox": {
        "minLon": -106.711835,
        "minLat": 37.39935,
        "maxLon": -106.03841,
        "maxLat": 37.835244
      },
      "subdivisions": [
        {
          "sub_num": "90969",
          "name": "Del Norte",
          "bbox": {
            "minLon": -106.711835,
            "minLat": 37.39935,
            "maxLon": -106.222074,
            "maxLat": 37.835244
          }
        },
        {
          "sub_num": "92527",
          "name": "Monte Vista",
          "bbox": {
            "minLon": -106.314087,
            "minLat": 37.400852,
            "maxLon": -106.039067,
            "maxLat": 37.648865
          }
        },
        {
          "sub_num": "93230",
          "name": "Sargent",
          "bbox": {
            "minLon": -106.240779,
            "minLat": 37.569367,
            "maxLon": -106.03841,
            "maxLat": 37.748353
          }
        }
      ]
    }
  },
  {
    "Gilpin": {
      "sub_num": "047",
      "name": "Gilpin",
      "bbox": {
        "minLon": -105.700784,
        "minLat": 39.745856,
        "maxLon": -105.39745,
        "maxLat": 39.938388
      },
      "subdivisions": [
        {
          "sub_num": "90570",
          "name": "Central City",
          "bbox": {
            "minLon": -105.700784,
            "minLat": 39.745856,
            "maxLon": -105.39745,
            "maxLat": 39.938388
          }
        }
      ]
    }
  },
  {
    "Yuma": {
      "sub_num": "125",
      "name": "Yuma",
      "bbox": {
        "minLon": -102.803767,
        "minLat": 39.567748,
        "maxLon": -102.049806,
        "maxLat": 40.440008
      },
      "subdivisions": [
        {
          "sub_num": "91850",
          "name": "Idalia-Joes",
          "bbox": {
            "minLon": -102.802932,
            "minLat": 39.567748,
            "maxLon": -102.049806,
            "maxLat": 39.97827
          }
        },
        {
          "sub_num": "93914",
          "name": "Wray",
          "bbox": {
            "minLon": -102.511678,
            "minLat": 39.748919,
            "maxLon": -102.051309,
            "maxLat": 40.440008
          }
        },
        {
          "sub_num": "93952",
          "name": "Yuma",
          "bbox": {
            "minLon": -102.803767,
            "minLat": 39.681633,
            "maxLon": -102.379186,
            "maxLat": 40.439166
          }
        }
      ]
    }
  },
  {
    "Jackson": {
      "sub_num": "057",
      "name": "Jackson",
      "bbox": {
        "minLon": -106.873221,
        "minLat": 40.323382,
        "maxLon": -105.851755,
        "maxLat": 41.002702
      },
      "subdivisions": [
        {
          "sub_num": "93724",
          "name": "Walden",
          "bbox": {
            "minLon": -106.873221,
            "minLat": 40.323382,
            "maxLon": -105.851755,
            "maxLat": 41.002702
          }
        }
      ]
    }
  },
  {
    "Kit Carson": {
      "sub_num": "063",
      "name": "Kit Carson",
      "bbox": {
        "minLon": -103.163209,
        "minLat": 39.03761,
        "maxLon": -102.046571,
        "maxLat": 39.574058
      },
      "subdivisions": [
        {
          "sub_num": "93534",
          "name": "Stratton",
          "bbox": {
            "minLon": -102.79955,
            "minLat": 39.038675,
            "maxLon": -102.409816,
            "maxLat": 39.570856
          }
        },
        {
          "sub_num": "90456",
          "name": "Burlington",
          "bbox": {
            "minLon": -102.455196,
            "minLat": 39.044151,
            "maxLon": -102.046571,
            "maxLat": 39.574058
          }
        },
        {
          "sub_num": "91273",
          "name": "Flagler",
          "bbox": {
            "minLon": -103.163209,
            "minLat": 39.03761,
            "maxLon": -102.739313,
            "maxLat": 39.568577
          }
        }
      ]
    }
  },
  {
    "Clear Creek": {
      "sub_num": "019",
      "name": "Clear Creek",
      "bbox": {
        "minLon": -105.92703,
        "minLat": 39.564865,
        "maxLon": -105.397949,
        "maxLat": 39.851996
      },
      "subdivisions": [
        {
          "sub_num": "91843",
          "name": "Idaho Springs",
          "bbox": {
            "minLon": -105.724558,
            "minLat": 39.565928,
            "maxLon": -105.397949,
            "maxLat": 39.851996
          }
        },
        {
          "sub_num": "91463",
          "name": "Georgetown",
          "bbox": {
            "minLon": -105.92703,
            "minLat": 39.564865,
            "maxLon": -105.563002,
            "maxLat": 39.819018
          }
        }
      ]
    }
  },
  {
    "Logan": {
      "sub_num": "075",
      "name": "Logan",
      "bbox": {
        "minLon": -103.581848,
        "minLat": 40.435294,
        "maxLon": -102.65088,
        "maxLat": 41.002558
      },
      "subdivisions": [
        {
          "sub_num": "93515",
          "name": "Sterling",
          "bbox": {
            "minLon": -103.581608,
            "minLat": 40.554829,
            "maxLon": -102.998048,
            "maxLat": 40.891435
          }
        },
        {
          "sub_num": "90931",
          "name": "Crook",
          "bbox": {
            "minLon": -103.00267,
            "minLat": 40.782042,
            "maxLon": -102.652087,
            "maxLat": 41.002454
          }
        },
        {
          "sub_num": "92869",
          "name": "Peetz",
          "bbox": {
            "minLon": -103.573948,
            "minLat": 40.818247,
            "maxLon": -102.904055,
            "maxLat": 41.002558
          }
        },
        {
          "sub_num": "92470",
          "name": "Merino",
          "bbox": {
            "minLon": -103.581848,
            "minLat": 40.435294,
            "maxLon": -103.226558,
            "maxLat": 40.624532
          }
        },
        {
          "sub_num": "91292",
          "name": "Fleming",
          "bbox": {
            "minLon": -103.267773,
            "minLat": 40.436087,
            "maxLon": -102.65088,
            "maxLat": 40.885133
          }
        }
      ]
    }
  },
  {
    "Washington": {
      "sub_num": "121",
      "name": "Washington",
      "bbox": {
        "minLon": -103.707072,
        "minLat": 39.565654,
        "maxLon": -102.779943,
        "maxLat": 40.438508
      },
      "subdivisions": [
        {
          "sub_num": "90798",
          "name": "Cope",
          "bbox": {
            "minLon": -103.219654,
            "minLat": 39.565654,
            "maxLon": -102.800408,
            "maxLat": 40.00256
          }
        },
        {
          "sub_num": "93905",
          "name": "Woodlin",
          "bbox": {
            "minLon": -103.707072,
            "minLat": 39.565692,
            "maxLon": -103.216811,
            "maxLat": 40.001588
          }
        },
        {
          "sub_num": "90057",
          "name": "Akron",
          "bbox": {
            "minLon": -103.473484,
            "minLat": 39.942639,
            "maxLon": -103.048773,
            "maxLat": 40.436845
          }
        },
        {
          "sub_num": "92774",
          "name": "Otis",
          "bbox": {
            "minLon": -103.08351,
            "minLat": 39.946486,
            "maxLon": -102.779943,
            "maxLat": 40.438508
          }
        }
      ]
    }
  },
  {
    "Douglas": {
      "sub_num": "035",
      "name": "Douglas",
      "bbox": {
        "minLon": -105.329445,
        "minLat": 39.129479,
        "maxLon": -104.66016,
        "maxLat": 39.566193
      },
      "subdivisions": [
        {
          "sub_num": "93249",
          "name": "Sedalia",
          "bbox": {
            "minLon": -105.329445,
            "minLat": 39.129487,
            "maxLon": -104.86185,
            "maxLat": 39.566193
          }
        },
        {
          "sub_num": "92850",
          "name": "Parker",
          "bbox": {
            "minLon": -104.87942,
            "minLat": 39.129479,
            "maxLon": -104.66016,
            "maxLat": 39.56605
          }
        },
        {
          "sub_num": "90513",
          "name": "Castle Rock",
          "bbox": {
            "minLon": -105.0965,
            "minLat": 39.129644,
            "maxLon": -104.73655,
            "maxLat": 39.434171
          }
        }
      ]
    }
  },
  {
    "Conejos": {
      "sub_num": "021",
      "name": "Conejos",
      "bbox": {
        "minLon": -106.678705,
        "minLat": 36.993548,
        "maxLon": -105.71802,
        "maxLat": 37.403663
      },
      "subdivisions": [
        {
          "sub_num": "90095",
          "name": "Antonito",
          "bbox": {
            "minLon": -106.100768,
            "minLat": 36.994949,
            "maxLon": -105.71802,
            "maxLat": 37.180992
          }
        },
        {
          "sub_num": "92375",
          "name": "Manassa",
          "bbox": {
            "minLon": -106.038417,
            "minLat": 37.106934,
            "maxLon": -105.89587,
            "maxLat": 37.22557
          }
        },
        {
          "sub_num": "92071",
          "name": "La Jara",
          "bbox": {
            "minLon": -106.149432,
            "minLat": 37.173697,
            "maxLon": -105.719924,
            "maxLat": 37.401112
          }
        },
        {
          "sub_num": "93825",
          "name": "West Conejos",
          "bbox": {
            "minLon": -106.678705,
            "minLat": 36.993548,
            "maxLon": -106.034544,
            "maxLat": 37.403663
          }
        }
      ]
    }
  },
  {
    "El Paso": {
      "sub_num": "041",
      "name": "El Paso",
      "bbox": {
        "minLon": -105.072529,
        "minLat": 38.51944,
        "maxLon": -104.051568,
        "maxLat": 39.13004
      },
      "subdivisions": [
        {
          "sub_num": "93420",
          "name": "Southeastern El Paso",
          "bbox": {
            "minLon": -104.682789,
            "minLat": 38.519843,
            "maxLon": -104.051942,
            "maxLat": 38.955499
          }
        },
        {
          "sub_num": "90627",
          "name": "Cheyenne Mountain",
          "bbox": {
            "minLon": -104.942528,
            "minLat": 38.567541,
            "maxLon": -104.807618,
            "maxLat": 38.811033
          }
        },
        {
          "sub_num": "90741",
          "name": "Colorado Springs",
          "bbox": {
            "minLon": -104.914604,
            "minLat": 38.724831,
            "maxLon": -104.653412,
            "maxLat": 38.98533
          }
        },
        {
          "sub_num": "92565",
          "name": "Monument",
          "bbox": {
            "minLon": -105.033473,
            "minLat": 38.831761,
            "maxLon": -104.797569,
            "maxLat": 39.13004
          }
        },
        {
          "sub_num": "90304",
          "name": "Black Forest-Peyton",
          "bbox": {
            "minLon": -104.86596,
            "minLat": 38.938903,
            "maxLon": -104.051568,
            "maxLat": 39.13001
          }
        },
        {
          "sub_num": "92907",
          "name": "Pikes Peak",
          "bbox": {
            "minLon": -105.072529,
            "minLat": 38.791561,
            "maxLon": -104.866495,
            "maxLat": 39.025367
          }
        },
        {
          "sub_num": "91197",
          "name": "Elsmere",
          "bbox": {
            "minLon": -104.720672,
            "minLat": 38.834842,
            "maxLon": -104.552675,
            "maxLat": 38.956733
          }
        },
        {
          "sub_num": "91387",
          "name": "Fountain",
          "bbox": {
            "minLon": -104.94213,
            "minLat": 38.51944,
            "maxLon": -104.602715,
            "maxLat": 38.781741
          }
        }
      ]
    }
  },
  {
    "Kiowa": {
      "sub_num": "061",
      "name": "Kiowa",
      "bbox": {
        "minLon": -103.506985,
        "minLat": 38.265004,
        "maxLon": -102.044401,
        "maxLat": 38.615727
      },
      "subdivisions": [
        {
          "sub_num": "91121",
          "name": "Eads",
          "bbox": {
            "minLon": -103.025637,
            "minLat": 38.266373,
            "maxLon": -102.601836,
            "maxLat": 38.615102
          }
        },
        {
          "sub_num": "93268",
          "name": "Sheridan Lake",
          "bbox": {
            "minLon": -102.620658,
            "minLat": 38.267227,
            "maxLon": -102.044401,
            "maxLat": 38.615727
          }
        },
        {
          "sub_num": "91691",
          "name": "Haswell",
          "bbox": {
            "minLon": -103.506985,
            "minLat": 38.265004,
            "maxLon": -103.023363,
            "maxLat": 38.615068
          }
        }
      ]
    }
  },
  {
    "Teller": {
      "sub_num": "119",
      "name": "Teller",
      "bbox": {
        "minLon": -105.330382,
        "minLat": 38.647464,
        "maxLon": -104.938961,
        "maxLat": 39.129783
      },
      "subdivisions": [
        {
          "sub_num": "90912",
          "name": "Cripple Creek",
          "bbox": {
            "minLon": -105.329148,
            "minLat": 38.647464,
            "maxLon": -104.938961,
            "maxLat": 38.858612
          }
        },
        {
          "sub_num": "91026",
          "name": "Divide",
          "bbox": {
            "minLon": -105.330382,
            "minLat": 38.754655,
            "maxLon": -105.027041,
            "maxLat": 39.129783
          }
        }
      ]
    }
  },
  {
    "Gunnison": {
      "sub_num": "051",
      "name": "Gunnison",
      "bbox": {
        "minLon": -107.63504,
        "minLat": 38.146888,
        "maxLon": -106.245363,
        "maxLat": 39.25773
      },
      "subdivisions": [
        {
          "sub_num": "93363",
          "name": "Somerset",
          "bbox": {
            "minLon": -107.50068,
            "minLat": 38.676648,
            "maxLon": -106.986278,
            "maxLat": 39.25773
          }
        },
        {
          "sub_num": "93211",
          "name": "Sapinero",
          "bbox": {
            "minLon": -107.63504,
            "minLat": 38.146888,
            "maxLon": -107.000601,
            "maxLat": 38.753017
          }
        },
        {
          "sub_num": "91672",
          "name": "Gunnison",
          "bbox": {
            "minLon": -107.206595,
            "minLat": 38.384114,
            "maxLon": -106.245363,
            "maxLat": 39.055917
          }
        },
        {
          "sub_num": "90893",
          "name": "Crested Butte",
          "bbox": {
            "minLon": -107.124756,
            "minLat": 38.657089,
            "maxLon": -106.708182,
            "maxLat": 39.034175
          }
        }
      ]
    }
  },
  {
    "Baca": {
      "sub_num": "009",
      "name": "Baca",
      "bbox": {
        "minLon": -103.087276,
        "minLat": 36.993016,
        "maxLon": -102.041522,
        "maxLat": 37.644424
      },
      "subdivisions": [
        {
          "sub_num": "92964",
          "name": "Pritchett",
          "bbox": {
            "minLon": -103.087276,
            "minLat": 36.998524,
            "maxLon": -102.711486,
            "maxLat": 37.644363
          }
        },
        {
          "sub_num": "93762",
          "name": "Walsh",
          "bbox": {
            "minLon": -102.539999,
            "minLat": 36.993016,
            "maxLon": -102.041522,
            "maxLat": 37.644424
          }
        },
        {
          "sub_num": "93477",
          "name": "Springfield",
          "bbox": {
            "minLon": -102.847737,
            "minLat": 37.202688,
            "maxLon": -102.379777,
            "maxLat": 37.643779
          }
        },
        {
          "sub_num": "90475",
          "name": "Campo",
          "bbox": {
            "minLon": -102.85077,
            "minLat": 36.994152,
            "maxLon": -102.270228,
            "maxLat": 37.311323
          }
        }
      ]
    }
  },
  {
    "Elbert": {
      "sub_num": "039",
      "name": "Elbert",
      "bbox": {
        "minLon": -104.662894,
        "minLat": 38.866436,
        "maxLon": -103.714117,
        "maxLat": 39.566623
      },
      "subdivisions": [
        {
          "sub_num": "90019",
          "name": "Agate",
          "bbox": {
            "minLon": -104.234863,
            "minLat": 39.170541,
            "maxLon": -103.714117,
            "maxLat": 39.566623
          }
        },
        {
          "sub_num": "93325",
          "name": "Simla",
          "bbox": {
            "minLon": -104.310454,
            "minLat": 38.866436,
            "maxLon": -103.714894,
            "maxLat": 39.292567
          }
        },
        {
          "sub_num": "91190",
          "name": "Elizabeth",
          "bbox": {
            "minLon": -104.662894,
            "minLat": 39.128736,
            "maxLon": -104.188385,
            "maxLat": 39.565922
          }
        }
      ]
    }
  },
  {
    "Mesa": {
      "sub_num": "077",
      "name": "Mesa",
      "bbox": {
        "minLon": -109.060152,
        "minLat": 38.499983,
        "maxLon": -107.377479,
        "maxLat": 39.366711
      },
      "subdivisions": [
        {
          "sub_num": "90950",
          "name": "De Beque",
          "bbox": {
            "minLon": -108.578367,
            "minLat": 39.118926,
            "maxLon": -108.000627,
            "maxLat": 39.366635
          }
        },
        {
          "sub_num": "91501",
          "name": "Glade Park-Gateway",
          "bbox": {
            "minLon": -109.060152,
            "minLat": 38.499983,
            "maxLon": -108.372409,
            "maxLat": 39.209005
          }
        },
        {
          "sub_num": "90665",
          "name": "Clifton",
          "bbox": {
            "minLon": -108.501447,
            "minLat": 39.01857,
            "maxLon": -108.320382,
            "maxLat": 39.162086
          }
        },
        {
          "sub_num": "91425",
          "name": "Fruita",
          "bbox": {
            "minLon": -109.051478,
            "minLat": 39.104774,
            "maxLon": -108.459442,
            "maxLat": 39.366711
          }
        },
        {
          "sub_num": "93857",
          "name": "Whitewater-Kannah Creek",
          "bbox": {
            "minLon": -108.544972,
            "minLat": 38.829426,
            "maxLon": -108.212564,
            "maxLat": 39.131909
          }
        },
        {
          "sub_num": "90703",
          "name": "Collbran",
          "bbox": {
            "minLon": -108.32445,
            "minLat": 38.877773,
            "maxLon": -107.377479,
            "maxLat": 39.366373
          }
        },
        {
          "sub_num": "91596",
          "name": "Grand Junction",
          "bbox": {
            "minLon": -108.738344,
            "minLat": 39.02036,
            "maxLon": -108.477645,
            "maxLat": 39.141429
          }
        }
      ]
    }
  },
  {
    "Dolores": {
      "sub_num": "033",
      "name": "Dolores",
      "bbox": {
        "minLon": -109.043366,
        "minLat": 37.484818,
        "maxLon": -107.860845,
        "maxLat": 37.895538
      },
      "subdivisions": [
        {
          "sub_num": "93078",
          "name": "Rico",
          "bbox": {
            "minLon": -108.827768,
            "minLat": 37.63151,
            "maxLon": -107.860845,
            "maxLat": 37.895538
          }
        },
        {
          "sub_num": "91064",
          "name": "Dove Creek",
          "bbox": {
            "minLon": -109.043366,
            "minLat": 37.484818,
            "maxLon": -108.70078,
            "maxLat": 37.881208
          }
        }
      ]
    }
  },
  {
    "Arapahoe": {
      "sub_num": "005",
      "name": "Arapahoe",
      "bbox": {
        "minLon": -105.054169,
        "minLat": 39.563601,
        "maxLon": -103.706547,
        "maxLat": 39.740835
      },
      "subdivisions": [
        {
          "sub_num": "91178",
          "name": "East Arapahoe",
          "bbox": {
            "minLon": -104.791234,
            "minLat": 39.563601,
            "maxLon": -103.706547,
            "maxLat": 39.740835
          }
        },
        {
          "sub_num": "93382",
          "name": "South Aurora",
          "bbox": {
            "minLon": -104.94075,
            "minLat": 39.565888,
            "maxLon": -104.679434,
            "maxLat": 39.740309
          }
        },
        {
          "sub_num": "93458",
          "name": "Southwest Arapahoe",
          "bbox": {
            "minLon": -105.054169,
            "minLat": 39.565943,
            "maxLon": -104.790123,
            "maxLat": 39.678684
          }
        }
      ]
    }
  },
  {
    "Las Animas": {
      "sub_num": "071",
      "name": "Las Animas",
      "bbox": {
        "minLon": -105.155063,
        "minLat": 36.992727,
        "maxLon": -103.074663,
        "maxLat": 37.817488
      },
      "subdivisions": [
        {
          "sub_num": "90038",
          "name": "Aguilar",
          "bbox": {
            "minLon": -105.02476,
            "minLat": 37.254413,
            "maxLon": -104.143173,
            "maxLat": 37.817488
          }
        },
        {
          "sub_num": "92508",
          "name": "Model",
          "bbox": {
            "minLon": -104.465629,
            "minLat": 37.18288,
            "maxLon": -103.558127,
            "maxLat": 37.75833
          }
        },
        {
          "sub_num": "93648",
          "name": "Trinidad",
          "bbox": {
            "minLon": -104.728365,
            "minLat": 36.993379,
            "maxLon": -104.131168,
            "maxLat": 37.368014
          }
        },
        {
          "sub_num": "90361",
          "name": "Branson",
          "bbox": {
            "minLon": -104.215634,
            "minLat": 36.994754,
            "maxLon": -103.423183,
            "maxLat": 37.561637
          }
        },
        {
          "sub_num": "91976",
          "name": "Kim",
          "bbox": {
            "minLon": -103.73322,
            "minLat": 36.999269,
            "maxLon": -103.074663,
            "maxLat": 37.644145
          }
        },
        {
          "sub_num": "93838",
          "name": "Weston",
          "bbox": {
            "minLon": -105.155063,
            "minLat": 36.992727,
            "maxLon": -104.59691,
            "maxLat": 37.34849
          }
        }
      ]
    }
  },
  {
    "Grand": {
      "sub_num": "049",
      "name": "Grand",
      "bbox": {
        "minLon": -106.652957,
        "minLat": 39.684122,
        "maxLon": -105.62609,
        "maxLat": 40.486252
      },
      "subdivisions": [
        {
          "sub_num": "92033",
          "name": "Kremmling",
          "bbox": {
            "minLon": -106.652957,
            "minLat": 39.684122,
            "maxLon": -105.880481,
            "maxLat": 40.445231
          }
        },
        {
          "sub_num": "91577",
          "name": "Granby",
          "bbox": {
            "minLon": -106.136519,
            "minLat": 39.785605,
            "maxLon": -105.62609,
            "maxLat": 40.486252
          }
        }
      ]
    }
  }
]
