[
  {
    "Rich": {
      "sub_num": "033",
      "name": "Rich",
      "bbox": {
        "minLon": -111.512042,
        "minLat": 41.14103,
        "maxLon": -111.045789,
        "maxLat": 42.001702
      },
      "subdivisions": [
        {
          "sub_num": "91032",
          "name": "Garden City-Laketown",
          "bbox": {
            "minLon": -111.512042,
            "minLat": 41.67673,
            "maxLon": -111.046353,
            "maxLat": 42.001702
          }
        },
        {
          "sub_num": "92752",
          "name": "Randolph-Woodruff",
          "bbox": {
            "minLon": -111.51102,
            "minLat": 41.14103,
            "maxLon": -111.045789,
            "maxLat": 41.779643
          }
        }
      ]
    }
  },
  {
    "Cache": {
      "sub_num": "005",
      "name": "Cache",
      "bbox": {
        "minLon": -112.166108,
        "minLat": 41.368818,
        "maxLon": -111.401535,
        "maxLat": 41.999552
      },
      "subdivisions": [
        {
          "sub_num": "91763",
          "name": "Logan",
          "bbox": {
            "minLon": -111.959195,
            "minLat": 41.625023,
            "maxLon": -111.765916,
            "maxLat": 41.818623
          }
        },
        {
          "sub_num": "93096",
          "name": "Smithfield",
          "bbox": {
            "minLon": -112.04806,
            "minLat": 41.746213,
            "maxLon": -111.757184,
            "maxLat": 41.922343
          }
        },
        {
          "sub_num": "93784",
          "name": "Wellsville",
          "bbox": {
            "minLon": -112.051869,
            "minLat": 41.534069,
            "maxLon": -111.888233,
            "maxLat": 41.778797
          }
        },
        {
          "sub_num": "91677",
          "name": "Lewiston",
          "bbox": {
            "minLon": -112.166108,
            "minLat": 41.850783,
            "maxLon": -111.739689,
            "maxLat": 41.99933
          }
        },
        {
          "sub_num": "90635",
          "name": "East Cache",
          "bbox": {
            "minLon": -111.916958,
            "minLat": 41.368818,
            "maxLon": -111.401535,
            "maxLat": 41.999552
          }
        },
        {
          "sub_num": "91505",
          "name": "Hyrum",
          "bbox": {
            "minLon": -111.955367,
            "minLat": 41.49496,
            "maxLon": -111.793516,
            "maxLat": 41.660793
          }
        }
      ]
    }
  },
  {
    "Duchesne": {
      "sub_num": "013",
      "name": "Duchesne",
      "bbox": {
        "minLon": -110.905017,
        "minLat": 39.80623,
        "maxLon": -109.976402,
        "maxLat": 40.834824
      },
      "subdivisions": [
        {
          "sub_num": "90559",
          "name": "Duchesne",
          "bbox": {
            "minLon": -110.902928,
            "minLat": 39.869559,
            "maxLon": -110.186891,
            "maxLat": 40.504345
          }
        },
        {
          "sub_num": "93225",
          "name": "South Duchesne",
          "bbox": {
            "minLon": -110.857815,
            "minLat": 39.806295,
            "maxLon": -110.058115,
            "maxLat": 40.112712
          }
        },
        {
          "sub_num": "92279",
          "name": "North Duchesne",
          "bbox": {
            "minLon": -110.905017,
            "minLat": 40.474303,
            "maxLon": -109.976402,
            "maxLat": 40.834824
          }
        },
        {
          "sub_num": "92881",
          "name": "Roosevelt",
          "bbox": {
            "minLon": -110.537223,
            "minLat": 39.80623,
            "maxLon": -109.976494,
            "maxLat": 40.606488
          }
        }
      ]
    }
  },
  {
    "Davis": {
      "sub_num": "011",
      "name": "Davis",
      "bbox": {
        "minLon": -112.493515,
        "minLat": 40.769093,
        "maxLon": -111.738912,
        "maxLat": 41.154384
      },
      "subdivisions": [
        {
          "sub_num": "92236",
          "name": "North Davis",
          "bbox": {
            "minLon": -112.493515,
            "minLat": 40.769093,
            "maxLon": -111.833545,
            "maxLat": 41.154384
          }
        },
        {
          "sub_num": "93182",
          "name": "South Davis",
          "bbox": {
            "minLon": -112.008134,
            "minLat": 40.819878,
            "maxLon": -111.738912,
            "maxLat": 41.039289
          }
        }
      ]
    }
  },
  {
    "Box Elder": {
      "sub_num": "003",
      "name": "Box Elder",
      "bbox": {
        "minLon": -114.042029,
        "minLat": 40.999896,
        "maxLon": -111.873171,
        "maxLat": 42.001515
      },
      "subdivisions": [
        {
          "sub_num": "90258",
          "name": "Brigham City",
          "bbox": {
            "minLon": -112.334923,
            "minLat": 41.336512,
            "maxLon": -111.873171,
            "maxLat": 41.595782
          }
        },
        {
          "sub_num": "93827",
          "name": "West Box Elder",
          "bbox": {
            "minLon": -114.042029,
            "minLat": 40.999896,
            "maxLon": -112.493515,
            "maxLat": 41.99832
          }
        },
        {
          "sub_num": "93440",
          "name": "Tremonton",
          "bbox": {
            "minLon": -112.489681,
            "minLat": 41.386447,
            "maxLon": -111.999436,
            "maxLat": 41.85356
          }
        },
        {
          "sub_num": "91419",
          "name": "Howell-Snowville",
          "bbox": {
            "minLon": -113.14731,
            "minLat": 41.076888,
            "maxLon": -112.046498,
            "maxLat": 42.001515
          }
        }
      ]
    }
  },
  {
    "Millard": {
      "sub_num": "027",
      "name": "Millard",
      "bbox": {
        "minLon": -114.049977,
        "minLat": 38.571358,
        "maxLon": -112.013965,
        "maxLat": 39.554046
      },
      "subdivisions": [
        {
          "sub_num": "90516",
          "name": "Delta",
          "bbox": {
            "minLon": -112.955594,
            "minLat": 39.080456,
            "maxLon": -112.115386,
            "maxLat": 39.554046
          }
        },
        {
          "sub_num": "90989",
          "name": "Fillmore",
          "bbox": {
            "minLon": -113.187683,
            "minLat": 38.571358,
            "maxLon": -112.013965,
            "maxLat": 39.329704
          }
        },
        {
          "sub_num": "91075",
          "name": "Garrison-Sevier Lake",
          "bbox": {
            "minLon": -114.049977,
            "minLat": 38.572548,
            "maxLon": -112.790753,
            "maxLat": 39.552678
          }
        }
      ]
    }
  },
  {
    "Morgan": {
      "sub_num": "029",
      "name": "Morgan",
      "bbox": {
        "minLon": -111.876598,
        "minLat": 40.780038,
        "maxLon": -111.22143,
        "maxLat": 41.373958
      },
      "subdivisions": [
        {
          "sub_num": "92064",
          "name": "Morgan North",
          "bbox": {
            "minLon": -111.876598,
            "minLat": 40.980873,
            "maxLon": -111.22143,
            "maxLat": 41.373958
          }
        },
        {
          "sub_num": "92107",
          "name": "Morgan South",
          "bbox": {
            "minLon": -111.85724,
            "minLat": 40.780038,
            "maxLon": -111.479555,
            "maxLat": 41.140143
          }
        }
      ]
    }
  },
  {
    "Weber": {
      "sub_num": "057",
      "name": "Weber",
      "bbox": {
        "minLon": -112.493515,
        "minLat": 41.076888,
        "maxLon": -111.420381,
        "maxLat": 41.433875
      },
      "subdivisions": [
        {
          "sub_num": "92322",
          "name": "Ogden",
          "bbox": {
            "minLon": -112.201041,
            "minLat": 41.134575,
            "maxLon": -111.854488,
            "maxLat": 41.365489
          }
        },
        {
          "sub_num": "92365",
          "name": "Ogden Valley",
          "bbox": {
            "minLon": -111.975799,
            "minLat": 41.170727,
            "maxLon": -111.420381,
            "maxLat": 41.433875
          }
        },
        {
          "sub_num": "92308",
          "name": "Northwest Weber",
          "bbox": {
            "minLon": -112.493515,
            "minLat": 41.076888,
            "maxLon": -111.98655,
            "maxLat": 41.336885
          }
        }
      ]
    }
  },
  {
    "Kane": {
      "sub_num": "025",
      "name": "Kane",
      "bbox": {
        "minLon": -112.901288,
        "minLat": 37.000385,
        "maxLon": -110.63927,
        "maxLat": 37.543693
      },
      "subdivisions": [
        {
          "sub_num": "92494",
          "name": "Orderville",
          "bbox": {
            "minLon": -112.901288,
            "minLat": 37.145203,
            "maxLon": -112.371283,
            "maxLat": 37.543693
          }
        },
        {
          "sub_num": "91591",
          "name": "Kanab",
          "bbox": {
            "minLon": -112.899272,
            "minLat": 37.000385,
            "maxLon": -110.63927,
            "maxLat": 37.542805
          }
        }
      ]
    }
  },
  {
    "Salt Lake": {
      "sub_num": "035",
      "name": "Salt Lake",
      "bbox": {
        "minLon": -112.260216,
        "minLat": 40.414169,
        "maxLon": -111.553188,
        "maxLat": 40.921848
      },
      "subdivisions": [
        {
          "sub_num": "90774",
          "name": "Emigration",
          "bbox": {
            "minLon": -111.815761,
            "minLat": 40.630748,
            "maxLon": -111.592711,
            "maxLat": 40.861795
          }
        },
        {
          "sub_num": "90172",
          "name": "Bingham",
          "bbox": {
            "minLon": -112.18765,
            "minLat": 40.414169,
            "maxLon": -111.921933,
            "maxLat": 40.609461
          }
        },
        {
          "sub_num": "93010",
          "name": "Salt Lake City",
          "bbox": {
            "minLon": -112.101354,
            "minLat": 40.440932,
            "maxLon": -111.737568,
            "maxLat": 40.841963
          }
        },
        {
          "sub_num": "90473",
          "name": "Cottonwood",
          "bbox": {
            "minLon": -111.806642,
            "minLat": 40.525149,
            "maxLon": -111.553188,
            "maxLat": 40.668467
          }
        },
        {
          "sub_num": "91806",
          "name": "Magna",
          "bbox": {
            "minLon": -112.260216,
            "minLat": 40.584529,
            "maxLon": -111.949762,
            "maxLat": 40.921848
          }
        }
      ]
    }
  },
  {
    "Sevier": {
      "sub_num": "041",
      "name": "Sevier",
      "bbox": {
        "minLon": -112.522627,
        "minLat": 38.501791,
        "maxLon": -111.298154,
        "maxLat": 39.045588
      },
      "subdivisions": [
        {
          "sub_num": "92838",
          "name": "Richfield",
          "bbox": {
            "minLon": -112.228438,
            "minLat": 38.501913,
            "maxLon": -111.298432,
            "maxLat": 38.935473
          }
        },
        {
          "sub_num": "92967",
          "name": "Salina",
          "bbox": {
            "minLon": -112.134031,
            "minLat": 38.755465,
            "maxLon": -111.298154,
            "maxLat": 39.045588
          }
        },
        {
          "sub_num": "91978",
          "name": "Monroe",
          "bbox": {
            "minLon": -112.522627,
            "minLat": 38.501791,
            "maxLon": -111.938743,
            "maxLat": 38.757006
          }
        }
      ]
    }
  },
  {
    "Garfield": {
      "sub_num": "017",
      "name": "Garfield",
      "bbox": {
        "minLon": -112.689297,
        "minLat": 37.535733,
        "maxLon": -109.927236,
        "maxLat": 38.15384
      },
      "subdivisions": [
        {
          "sub_num": "92537",
          "name": "Panguitch",
          "bbox": {
            "minLon": -112.689297,
            "minLat": 37.536837,
            "maxLon": -112.124759,
            "maxLat": 38.150295
          }
        },
        {
          "sub_num": "93483",
          "name": "Tropic",
          "bbox": {
            "minLon": -112.281803,
            "minLat": 37.535733,
            "maxLon": -111.776121,
            "maxLat": 38.151237
          }
        },
        {
          "sub_num": "90702",
          "name": "East Garfield",
          "bbox": {
            "minLon": -111.187069,
            "minLat": 37.540522,
            "maxLon": -109.927236,
            "maxLat": 38.15291
          }
        },
        {
          "sub_num": "90903",
          "name": "Escalante",
          "bbox": {
            "minLon": -111.889884,
            "minLat": 37.539594,
            "maxLon": -110.854067,
            "maxLat": 38.15384
          }
        }
      ]
    }
  },
  {
    "Washington": {
      "sub_num": "053",
      "name": "Washington",
      "bbox": {
        "minLon": -114.052885,
        "minLat": 36.999975,
        "maxLon": -112.899066,
        "maxLat": 37.618289
      },
      "subdivisions": [
        {
          "sub_num": "90817",
          "name": "Enterprise",
          "bbox": {
            "minLon": -114.052885,
            "minLat": 37.226065,
            "maxLon": -113.272161,
            "maxLat": 37.618289
          }
        },
        {
          "sub_num": "91462",
          "name": "Hurricane",
          "bbox": {
            "minLon": -113.46294,
            "minLat": 36.999979,
            "maxLon": -112.899066,
            "maxLat": 37.529268
          }
        },
        {
          "sub_num": "92924",
          "name": "St. George",
          "bbox": {
            "minLon": -114.05283,
            "minLat": 36.999975,
            "maxLon": -113.379021,
            "maxLat": 37.531031
          }
        }
      ]
    }
  },
  {
    "Piute": {
      "sub_num": "031",
      "name": "Piute",
      "bbox": {
        "minLon": -112.519522,
        "minLat": 38.145615,
        "maxLon": -111.766393,
        "maxLat": 38.512254
      },
      "subdivisions": [
        {
          "sub_num": "90387",
          "name": "Circleville",
          "bbox": {
            "minLon": -112.444214,
            "minLat": 38.145615,
            "maxLon": -111.766393,
            "maxLat": 38.502273
          }
        },
        {
          "sub_num": "91849",
          "name": "Marysvale",
          "bbox": {
            "minLon": -112.519522,
            "minLat": 38.317178,
            "maxLon": -111.979275,
            "maxLat": 38.512254
          }
        }
      ]
    }
  },
  {
    "Summit": {
      "sub_num": "043",
      "name": "Summit",
      "bbox": {
        "minLon": -111.649129,
        "minLat": 40.548332,
        "maxLon": -110.000697,
        "maxLat": 41.251627
      },
      "subdivisions": [
        {
          "sub_num": "90430",
          "name": "Coalville",
          "bbox": {
            "minLon": -111.593712,
            "minLat": 40.680587,
            "maxLon": -110.851827,
            "maxLat": 41.251627
          }
        },
        {
          "sub_num": "92580",
          "name": "Park City",
          "bbox": {
            "minLon": -111.649129,
            "minLat": 40.599298,
            "maxLon": -111.430362,
            "maxLat": 40.835378
          }
        },
        {
          "sub_num": "91548",
          "name": "Kamas",
          "bbox": {
            "minLon": -111.432107,
            "minLat": 40.548332,
            "maxLon": -110.000697,
            "maxLat": 40.99745
          }
        }
      ]
    }
  },
  {
    "Emery": {
      "sub_num": "015",
      "name": "Emery",
      "bbox": {
        "minLon": -111.307037,
        "minLat": 38.499921,
        "maxLon": -109.987754,
        "maxLat": 39.704373
      },
      "subdivisions": [
        {
          "sub_num": "90731",
          "name": "Emery-Ferron",
          "bbox": {
            "minLon": -111.307037,
            "minLat": 38.499976,
            "maxLon": -110.811429,
            "maxLat": 39.213659
          }
        },
        {
          "sub_num": "91161",
          "name": "Green River",
          "bbox": {
            "minLon": -111.116622,
            "minLat": 38.499921,
            "maxLon": -109.987754,
            "maxLat": 39.469802
          }
        },
        {
          "sub_num": "90301",
          "name": "Castle Dale-Huntington",
          "bbox": {
            "minLon": -111.301256,
            "minLat": 39.078659,
            "maxLon": -110.338512,
            "maxLat": 39.704373
          }
        }
      ]
    }
  },
  {
    "Daggett": {
      "sub_num": "009",
      "name": "Daggett",
      "bbox": {
        "minLon": -110.000717,
        "minLat": 40.662385,
        "maxLon": -109.048432,
        "maxLat": 41.002107
      },
      "subdivisions": [
        {
          "sub_num": "93870",
          "name": "West Daggett",
          "bbox": {
            "minLon": -110.000717,
            "minLat": 40.740386,
            "maxLon": -109.405129,
            "maxLat": 40.998485
          }
        },
        {
          "sub_num": "90688",
          "name": "East Daggett",
          "bbox": {
            "minLon": -109.58631,
            "minLat": 40.662385,
            "maxLon": -109.048432,
            "maxLat": 41.002107
          }
        }
      ]
    }
  },
  {
    "Beaver": {
      "sub_num": "001",
      "name": "Beaver",
      "bbox": {
        "minLon": -114.050521,
        "minLat": 38.147325,
        "maxLon": -112.335381,
        "maxLat": 38.574158
      },
      "subdivisions": [
        {
          "sub_num": "91892",
          "name": "Milford-Minersville",
          "bbox": {
            "minLon": -114.050521,
            "minLat": 38.147446,
            "maxLon": -112.709031,
            "maxLat": 38.574158
          }
        },
        {
          "sub_num": "90086",
          "name": "Beaver",
          "bbox": {
            "minLon": -112.794866,
            "minLat": 38.147325,
            "maxLon": -112.335381,
            "maxLat": 38.572896
          }
        }
      ]
    }
  },
  {
    "Uintah": {
      "sub_num": "047",
      "name": "Uintah",
      "bbox": {
        "minLon": -110.04823,
        "minLat": 39.461766,
        "maxLon": -109.047767,
        "maxLat": 40.858412
      },
      "subdivisions": [
        {
          "sub_num": "93655",
          "name": "Vernal",
          "bbox": {
            "minLon": -109.962663,
            "minLat": 40.172614,
            "maxLon": -109.047767,
            "maxLat": 40.858412
          }
        },
        {
          "sub_num": "93569",
          "name": "Uintah and Ouray",
          "bbox": {
            "minLon": -110.04823,
            "minLat": 39.461766,
            "maxLon": -109.050334,
            "maxLat": 40.810712
          }
        }
      ]
    }
  },
  {
    "Utah": {
      "sub_num": "049",
      "name": "Utah",
      "bbox": {
        "minLon": -112.214178,
        "minLat": 39.776246,
        "maxLon": -110.857647,
        "maxLat": 40.577914
      },
      "subdivisions": [
        {
          "sub_num": "90043",
          "name": "American Fork-Pleasant Grove",
          "bbox": {
            "minLon": -111.913313,
            "minLat": 40.241366,
            "maxLon": -111.437874,
            "maxLat": 40.577914
          }
        },
        {
          "sub_num": "93311",
          "name": "Springville-Mapleton",
          "bbox": {
            "minLon": -111.676246,
            "minLat": 39.812027,
            "maxLon": -110.857647,
            "maxLat": 40.300714
          }
        },
        {
          "sub_num": "91634",
          "name": "Lehi",
          "bbox": {
            "minLon": -112.214178,
            "minLat": 40.054606,
            "maxLon": -111.743118,
            "maxLat": 40.470456
          }
        },
        {
          "sub_num": "91118",
          "name": "Goshen",
          "bbox": {
            "minLon": -112.183786,
            "minLat": 39.776246,
            "maxLon": -111.791378,
            "maxLat": 40.174254
          }
        },
        {
          "sub_num": "93268",
          "name": "Spanish Fork-Payson",
          "bbox": {
            "minLon": -111.827728,
            "minLat": 39.810625,
            "maxLon": -111.544509,
            "maxLat": 40.205594
          }
        },
        {
          "sub_num": "92709",
          "name": "Provo-Orem",
          "bbox": {
            "minLon": -111.859034,
            "minLat": 40.181835,
            "maxLon": -111.565661,
            "maxLat": 40.333821
          }
        }
      ]
    }
  },
  {
    "Wayne": {
      "sub_num": "055",
      "name": "Wayne",
      "bbox": {
        "minLon": -111.84884,
        "minLat": 38.14996,
        "maxLon": -109.885105,
        "maxLat": 38.510231
      },
      "subdivisions": [
        {
          "sub_num": "91720",
          "name": "Loa",
          "bbox": {
            "minLon": -111.84884,
            "minLat": 38.14996,
            "maxLon": -111.171926,
            "maxLat": 38.510231
          }
        },
        {
          "sub_num": "91247",
          "name": "Hanksville",
          "bbox": {
            "minLon": -111.473346,
            "minLat": 38.151724,
            "maxLon": -109.885105,
            "maxLat": 38.510194
          }
        }
      ]
    }
  },
  {
    "Juab": {
      "sub_num": "023",
      "name": "Juab",
      "bbox": {
        "minLon": -114.047855,
        "minLat": 39.314483,
        "maxLon": -111.584754,
        "maxLat": 40.011656
      },
      "subdivisions": [
        {
          "sub_num": "90946",
          "name": "Eureka",
          "bbox": {
            "minLon": -112.629539,
            "minLat": 39.552376,
            "maxLon": -112.053511,
            "maxLat": 40.011656
          }
        },
        {
          "sub_num": "93913",
          "name": "West Juab",
          "bbox": {
            "minLon": -114.047855,
            "minLat": 39.542695,
            "maxLon": -112.342922,
            "maxLat": 39.906097
          }
        },
        {
          "sub_num": "92193",
          "name": "Nephi",
          "bbox": {
            "minLon": -112.354467,
            "minLat": 39.314483,
            "maxLon": -111.584754,
            "maxLat": 39.947718
          }
        }
      ]
    }
  },
  {
    "Carbon": {
      "sub_num": "007",
      "name": "Carbon",
      "bbox": {
        "minLon": -111.247506,
        "minLat": 39.467455,
        "maxLon": -109.873913,
        "maxLat": 39.814138
      },
      "subdivisions": [
        {
          "sub_num": "92666",
          "name": "Price",
          "bbox": {
            "minLon": -111.107438,
            "minLat": 39.467455,
            "maxLon": -110.573201,
            "maxLat": 39.677924
          }
        },
        {
          "sub_num": "91333",
          "name": "Helper",
          "bbox": {
            "minLon": -111.247506,
            "minLat": 39.538064,
            "maxLon": -110.341011,
            "maxLat": 39.814138
          }
        },
        {
          "sub_num": "90645",
          "name": "East Carbon",
          "bbox": {
            "minLon": -110.638925,
            "minLat": 39.469251,
            "maxLon": -109.873913,
            "maxLat": 39.806842
          }
        }
      ]
    }
  },
  {
    "Iron": {
      "sub_num": "021",
      "name": "Iron",
      "bbox": {
        "minLon": -114.05235,
        "minLat": 37.474298,
        "maxLon": -112.467021,
        "maxLat": 38.148777
      },
      "subdivisions": [
        {
          "sub_num": "90344",
          "name": "Cedar City",
          "bbox": {
            "minLon": -113.474029,
            "minLat": 37.474298,
            "maxLon": -112.784847,
            "maxLat": 38.148681
          }
        },
        {
          "sub_num": "90129",
          "name": "Beryl-Newcastle",
          "bbox": {
            "minLon": -114.05235,
            "minLat": 37.553585,
            "maxLon": -113.241737,
            "maxLat": 38.148777
          }
        },
        {
          "sub_num": "92623",
          "name": "Parowan",
          "bbox": {
            "minLon": -113.040011,
            "minLat": 37.543484,
            "maxLon": -112.467021,
            "maxLat": 38.148199
          }
        }
      ]
    }
  },
  {
    "Sanpete": {
      "sub_num": "039",
      "name": "Sanpete",
      "bbox": {
        "minLon": -112.01624,
        "minLat": 39.032255,
        "maxLon": -111.247078,
        "maxLat": 39.813166
      },
      "subdivisions": [
        {
          "sub_num": "92150",
          "name": "Mount Pleasant-Moroni",
          "bbox": {
            "minLon": -111.747743,
            "minLat": 39.345028,
            "maxLon": -111.247078,
            "maxLat": 39.813166
          }
        },
        {
          "sub_num": "90860",
          "name": "Ephraim-Manti",
          "bbox": {
            "minLon": -111.802387,
            "minLat": 39.032255,
            "maxLon": -111.299345,
            "maxLat": 39.426223
          }
        },
        {
          "sub_num": "91204",
          "name": "Gunnison",
          "bbox": {
            "minLon": -112.01624,
            "minLat": 39.032984,
            "maxLon": -111.643412,
            "maxLat": 39.444176
          }
        }
      ]
    }
  },
  {
    "San Juan": {
      "sub_num": "037",
      "name": "San Juan",
      "bbox": {
        "minLon": -111.413014,
        "minLat": 36.997657,
        "maxLon": -109.041572,
        "maxLat": 38.500028
      },
      "subdivisions": [
        {
          "sub_num": "92021",
          "name": "Monticello",
          "bbox": {
            "minLon": -110.044631,
            "minLat": 37.343963,
            "maxLon": -109.041572,
            "maxLat": 38.500028
          }
        },
        {
          "sub_num": "90215",
          "name": "Blanding",
          "bbox": {
            "minLon": -110.903028,
            "minLat": 37.144236,
            "maxLon": -109.213892,
            "maxLat": 38.295288
          }
        },
        {
          "sub_num": "90280",
          "name": "Casa del Eco Mesa-White Mesa",
          "bbox": {
            "minLon": -109.738311,
            "minLat": 36.998245,
            "maxLon": -109.044995,
            "maxLat": 37.461732
          }
        },
        {
          "sub_num": "92408",
          "name": "Oljato",
          "bbox": {
            "minLon": -111.413014,
            "minLat": 36.997657,
            "maxLon": -109.69546,
            "maxLat": 37.320653
          }
        }
      ]
    }
  },
  {
    "Wasatch": {
      "sub_num": "051",
      "name": "Wasatch",
      "bbox": {
        "minLon": -111.620952,
        "minLat": 39.899653,
        "maxLon": -110.891655,
        "maxLat": 40.690949
      },
      "subdivisions": [
        {
          "sub_num": "93139",
          "name": "Soldier Summit",
          "bbox": {
            "minLon": -111.152196,
            "minLat": 39.899653,
            "maxLon": -110.959951,
            "maxLat": 40.045574
          }
        },
        {
          "sub_num": "93612",
          "name": "Uintah and Ouray",
          "bbox": {
            "minLon": -111.312183,
            "minLat": 39.899654,
            "maxLon": -110.891655,
            "maxLat": 40.678162
          }
        },
        {
          "sub_num": "91300",
          "name": "Heber City East",
          "bbox": {
            "minLon": -111.425687,
            "minLat": 40.297786,
            "maxLon": -110.90195,
            "maxLat": 40.682217
          }
        },
        {
          "sub_num": "91312",
          "name": "Heber City West",
          "bbox": {
            "minLon": -111.620952,
            "minLat": 40.369837,
            "maxLon": -111.409295,
            "maxLat": 40.557673
          }
        },
        {
          "sub_num": "92301",
          "name": "North Wasatch",
          "bbox": {
            "minLon": -111.593879,
            "minLat": 40.529188,
            "maxLon": -111.164654,
            "maxLat": 40.690949
          }
        },
        {
          "sub_num": "91308",
          "name": "Heber City South",
          "bbox": {
            "minLon": -111.556235,
            "minLat": 40.282216,
            "maxLon": -111.253909,
            "maxLat": 40.492869
          }
        }
      ]
    }
  },
  {
    "Grand": {
      "sub_num": "019",
      "name": "Grand",
      "bbox": {
        "minLon": -110.179296,
        "minLat": 38.499927,
        "maxLon": -109.050701,
        "maxLat": 39.499875
      },
      "subdivisions": [
        {
          "sub_num": "93356",
          "name": "Thompson Springs",
          "bbox": {
            "minLon": -110.179296,
            "minLat": 38.499931,
            "maxLon": -109.050701,
            "maxLat": 39.462383
          }
        },
        {
          "sub_num": "93526",
          "name": "Uintah and Ouray",
          "bbox": {
            "minLon": -110.077562,
            "minLat": 39.146775,
            "maxLon": -109.051153,
            "maxLat": 39.499875
          }
        },
        {
          "sub_num": "91935",
          "name": "Moab",
          "bbox": {
            "minLon": -109.658477,
            "minLat": 38.499927,
            "maxLon": -109.052416,
            "maxLat": 39.024803
          }
        }
      ]
    }
  },
  {
    "Tooele": {
      "sub_num": "045",
      "name": "Tooele",
      "bbox": {
        "minLon": -114.047026,
        "minLat": 39.903655,
        "maxLon": -112.144383,
        "maxLat": 41.076888
      },
      "subdivisions": [
        {
          "sub_num": "90602",
          "name": "Dugway-Wendover",
          "bbox": {
            "minLon": -114.047026,
            "minLat": 39.903655,
            "maxLon": -112.437525,
            "maxLat": 41.03428
          }
        },
        {
          "sub_num": "92902",
          "name": "Rush Valley",
          "bbox": {
            "minLon": -112.608149,
            "minLat": 39.903886,
            "maxLon": -112.144383,
            "maxLat": 40.448883
          }
        },
        {
          "sub_num": "93397",
          "name": "Tooele-Grantsville",
          "bbox": {
            "minLon": -112.706349,
            "minLat": 40.420394,
            "maxLon": -112.171567,
            "maxLat": 41.076888
          }
        }
      ]
    }
  }
]