{
    "10": {
      "name": "Newfoundland and Labrador",
      "sub_code": "NL",
      "sub_id": "10",
      "bbox": {
        "minLon": -141.01807315762784,
        "minLat": 59.99999998686003,
        "maxLon": -123.78932483557897,
        "maxLat": 69.64745530356235
      }
    },
    "11": {
      "name": "Prince Edward Island",
      "sub_code": "PE",
      "sub_id": "11",
      "bbox": {
        "minLon": -64.41345805388153,
        "minLat": 45.94825950278871,
        "maxLon": -61.97070967673997,
        "maxLat": 47.06122202997045
      }
    },
    "12": {
      "name": "Nova Scotia",
      "sub_code": "NS",
      "sub_id": "12",
      "bbox": {
        "minLon": -66.39503237740779,
        "minLat": 43.38966200891611,
        "maxLon": -59.674167569953404,
        "maxLat": 47.228032228270116
      }
    },
    "13": {
      "name": "New Brunswick",
      "sub_code": "NB",
      "sub_id": "13",
      "bbox": {
        "minLon": -69.0532785201383,
        "minLat": 44.57031288924336,
        "maxLon": -63.771599927411366,
        "maxLat": 48.08933913282103
      }
    },
    "24": {
      "name": "Quebec",
      "sub_code": "QC",
      "sub_id": "24",
      "bbox": {
        "minLon": -79.76105867305748,
        "minLat": 44.99114316765965,
        "maxLon": -57.10548640010151,
        "maxLat": 62.58286491704728
      }
    },
    "35": {
      "name": "Ontario",
      "sub_code": "ON",
      "sub_id": "35",
      "bbox": {
        "minLon": -95.15482594209122,
        "minLat": 41.68143542498606,
        "maxLon": -74.3434958172725,
        "maxLat": 56.8590362331328
      }
    },
    "46": {
      "name": "Manitoba",
      "sub_code": "MB",
      "sub_id": "46",
      "bbox": {
        "minLon": -102.00000002514605,
        "minLat": 48.99999999719589,
        "maxLon": -88.98649334011763,
        "maxLat": 60.00006152625598
      }
    },
    "47": {
      "name": "Saskatchewan",
      "sub_code": "SK",
      "sub_id": "47",
      "bbox": {
        "minLon": -110.00802435846342,
        "minLat": 48.999698741741696,
        "maxLon": -101.36230470942762,
        "maxLat": 60.000061527414104
      }
    },
    "48": {
      "name": "Alberta",
      "sub_code": "AB",
      "sub_id": "48",
      "bbox": {
        "minLon": -120.00269820226407,
        "minLat": 48.99673996423948,
        "maxLon": -109.99964079577137,
        "maxLat": 60.000073260174226
      }
    },
    "49": {
      "name": "British Columbia",
      "sub_code": "BC",
      "sub_id": "49",
      "bbox": {
        "minLon": -139.0522010411866,
        "minLat": 48.308915686538754,
        "maxLon": -114.0537582644696,
        "maxLat": 60.000061531802125
      }
    },
    "60": {
      "name": "Yukon",
      "sub_code": "YT",
      "sub_id": "60",
      "bbox": {
        "minLon": -141.01807315762784,
        "minLat": 59.99999998686003,
        "maxLon": -123.78932483557897,
        "maxLat": 69.64745530356235
      }
    },
    "61": {
      "name": "Northwest Territories",
      "sub_code": "NU",
      "sub_id": "61",
      "bbox": {
        "minLon": -136.47684412534173,
        "minLat": 59.99999998625139,
        "maxLon": -101.99999996694538,
        "maxLat": 78.80365777551438
      }
    },
    "62": {
      "name": "Nunavut",
      "sub_code": "NT",
      "sub_id": "62",
      "bbox": {
        "minLon": -120.72491371170202,
        "minLat": 51.27504892068751,
        "maxLon": -61.09532368100351,
        "maxLat": 83.13550252435944
      }
    }
  }