[
  {
    "Yuma": {
      "sub_num": "027",
      "name": "Yuma",
      "bbox": {
        "minLon": -114.8163,
        "minLat": 32.038927,
        "maxLon": -113.333212,
        "maxLat": 33.464507
      },
      "subdivisions": [
        {
          "sub_num": "93264",
          "name": "Somerton",
          "bbox": {
            "minLon": -114.8163,
            "minLat": 32.419141,
            "maxLon": -114.54217,
            "maxLat": 32.626382
          }
        },
        {
          "sub_num": "93672",
          "name": "Wellton",
          "bbox": {
            "minLon": -114.563775,
            "minLat": 32.038927,
            "maxLon": -113.333212,
            "maxLat": 33.464507
          }
        },
        {
          "sub_num": "93978",
          "name": "Yuma",
          "bbox": {
            "minLon": -114.814087,
            "minLat": 32.558667,
            "maxLon": -114.316985,
            "maxLat": 33.027886
          }
        }
      ]
    }
  },
  {
    "Pinal": {
      "sub_num": "021",
      "name": "Pinal",
      "bbox": {
        "minLon": -112.203624,
        "minLat": 32.501332,
        "maxLon": -110.448461,
        "maxLat": 33.466019
      },
      "subdivisions": [
        {
          "sub_num": "91224",
          "name": "Florence",
          "bbox": {
            "minLon": -111.516732,
            "minLat": 32.501616,
            "maxLon": -110.86537,
            "maxLat": 33.118615
          }
        },
        {
          "sub_num": "92346",
          "name": "North Pinal",
          "bbox": {
            "minLon": -111.686032,
            "minLat": 32.984189,
            "maxLon": -110.783213,
            "maxLat": 33.466019
          }
        },
        {
          "sub_num": "93162",
          "name": "San Manuel",
          "bbox": {
            "minLon": -111.18487,
            "minLat": 32.51112,
            "maxLon": -110.448461,
            "maxLat": 33.198039
          }
        },
        {
          "sub_num": "91173",
          "name": "Eloy",
          "bbox": {
            "minLon": -111.79265,
            "minLat": 32.501332,
            "maxLon": -111.266871,
            "maxLat": 32.856574
          }
        },
        {
          "sub_num": "91428",
          "name": "Gila River",
          "bbox": {
            "minLon": -112.203208,
            "minLat": 32.967045,
            "maxLon": -111.515829,
            "maxLat": 33.310499
          }
        },
        {
          "sub_num": "90510",
          "name": "Casa Grande",
          "bbox": {
            "minLon": -111.929365,
            "minLat": 32.763029,
            "maxLon": -111.636721,
            "maxLat": 33.014198
          }
        },
        {
          "sub_num": "92091",
          "name": "Maricopa-Stanfield",
          "bbox": {
            "minLon": -112.203574,
            "minLat": 32.681457,
            "maxLon": -111.877427,
            "maxLat": 33.087981
          }
        },
        {
          "sub_num": "93377",
          "name": "Tohono O'odham Nation",
          "bbox": {
            "minLon": -112.203624,
            "minLat": 32.506613,
            "maxLon": -111.740098,
            "maxLat": 32.792782
          }
        },
        {
          "sub_num": "90816",
          "name": "Coolidge",
          "bbox": {
            "minLon": -111.687546,
            "minLat": 32.835541,
            "maxLon": -111.444491,
            "maxLat": 33.027617
          }
        }
      ]
    }
  },
  {
    "Navajo": {
      "sub_num": "017",
      "name": "Navajo",
      "bbox": {
        "minLon": -110.75071,
        "minLat": 33.567175,
        "maxLon": -109.826711,
        "maxLat": 37.003725
      },
      "subdivisions": [
        {
          "sub_num": "91785",
          "name": "Indian Wells",
          "bbox": {
            "minLon": -110.7507,
            "minLat": 35.169641,
            "maxLon": -109.826711,
            "maxLat": 35.66269
          }
        },
        {
          "sub_num": "93952",
          "name": "Winslow-Holbrook",
          "bbox": {
            "minLon": -110.75071,
            "minLat": 34.567518,
            "maxLon": -109.842938,
            "maxLat": 35.172873
          }
        },
        {
          "sub_num": "93213",
          "name": "Snowflake",
          "bbox": {
            "minLon": -110.750685,
            "minLat": 34.09834,
            "maxLon": -109.846803,
            "maxLat": 34.797721
          }
        },
        {
          "sub_num": "91860",
          "name": "Kayenta",
          "bbox": {
            "minLon": -110.750699,
            "minLat": 36.374401,
            "maxLon": -110.000621,
            "maxLat": 37.003725
          }
        },
        {
          "sub_num": "91632",
          "name": "Hopi",
          "bbox": {
            "minLon": -110.7507,
            "minLat": 35.500008,
            "maxLon": -110.000672,
            "maxLat": 36.430566
          }
        },
        {
          "sub_num": "92703",
          "name": "Pi\u00c3\u00b1on",
          "bbox": {
            "minLon": -110.616781,
            "minLat": 35.84377,
            "maxLon": -110.000671,
            "maxLat": 36.483902
          }
        },
        {
          "sub_num": "91279",
          "name": "Fort Apache",
          "bbox": {
            "minLon": -110.750683,
            "minLat": 33.567175,
            "maxLon": -109.85919,
            "maxLat": 34.307111
          }
        }
      ]
    }
  },
  {
    "Greenlee": {
      "sub_num": "011",
      "name": "Greenlee",
      "bbox": {
        "minLon": -109.495829,
        "minLat": 32.42635,
        "maxLon": -109.046701,
        "maxLat": 33.778123
      },
      "subdivisions": [
        {
          "sub_num": "90663",
          "name": "Clifton",
          "bbox": {
            "minLon": -109.495829,
            "minLat": 32.849604,
            "maxLon": -109.046701,
            "maxLat": 33.778123
          }
        },
        {
          "sub_num": "91020",
          "name": "Duncan",
          "bbox": {
            "minLon": -109.33806,
            "minLat": 32.42635,
            "maxLon": -109.047449,
            "maxLat": 33.10739
          }
        }
      ]
    }
  },
  {
    "Maricopa": {
      "sub_num": "013",
      "name": "Maricopa",
      "bbox": {
        "minLon": -113.335075,
        "minLat": 32.505059,
        "maxLon": -111.039905,
        "maxLat": 34.04817
      },
      "subdivisions": [
        {
          "sub_num": "90561",
          "name": "Chandler",
          "bbox": {
            "minLon": -111.972735,
            "minLat": 33.203282,
            "maxLon": -111.582631,
            "maxLat": 33.350569
          }
        },
        {
          "sub_num": "92601",
          "name": "Phoenix",
          "bbox": {
            "minLon": -112.47015,
            "minLat": 33.29026,
            "maxLon": -111.580626,
            "maxLat": 33.813966
          }
        },
        {
          "sub_num": "93472",
          "name": "Tonto National Forest",
          "bbox": {
            "minLon": -112.065396,
            "minLat": 33.465462,
            "maxLon": -111.039905,
            "maxLat": 34.037348
          }
        },
        {
          "sub_num": "91377",
          "name": "Gila Bend",
          "bbox": {
            "minLon": -113.333894,
            "minLat": 32.505059,
            "maxLon": -112.202087,
            "maxLat": 33.39423
          }
        },
        {
          "sub_num": "93774",
          "name": "Wickenburg",
          "bbox": {
            "minLon": -113.335075,
            "minLat": 33.638022,
            "maxLon": -112.264529,
            "maxLat": 34.000041
          }
        },
        {
          "sub_num": "90867",
          "name": "Deer Valley",
          "bbox": {
            "minLon": -112.311701,
            "minLat": 33.637926,
            "maxLon": -111.891165,
            "maxLat": 34.04817
          }
        },
        {
          "sub_num": "90459",
          "name": "Buckeye",
          "bbox": {
            "minLon": -113.335064,
            "minLat": 32.958267,
            "maxLon": -112.454999,
            "maxLat": 33.648299
          }
        },
        {
          "sub_num": "93009",
          "name": "St. Johns",
          "bbox": {
            "minLon": -112.30875,
            "minLat": 33.20456,
            "maxLon": -111.892885,
            "maxLat": 33.38897
          }
        },
        {
          "sub_num": "93060",
          "name": "Salt River",
          "bbox": {
            "minLon": -111.909647,
            "minLat": 33.436755,
            "maxLon": -111.619185,
            "maxLat": 33.718478
          }
        }
      ]
    }
  },
  {
    "Pima": {
      "sub_num": "019",
      "name": "Pima",
      "bbox": {
        "minLon": -113.334105,
        "minLat": 31.426061,
        "maxLon": -110.447644,
        "maxLat": 32.514188
      },
      "subdivisions": [
        {
          "sub_num": "93570",
          "name": "Tucson",
          "bbox": {
            "minLon": -111.266421,
            "minLat": 31.726216,
            "maxLon": -110.447644,
            "maxLat": 32.514188
          }
        },
        {
          "sub_num": "90153",
          "name": "Arivaca",
          "bbox": {
            "minLon": -111.651601,
            "minLat": 31.426061,
            "maxLon": -110.951493,
            "maxLat": 32.173785
          }
        },
        {
          "sub_num": "90051",
          "name": "Ajo",
          "bbox": {
            "minLon": -113.334105,
            "minLat": 31.815757,
            "maxLon": -112.574754,
            "maxLat": 32.506056
          }
        },
        {
          "sub_num": "92040",
          "name": "Marana",
          "bbox": {
            "minLon": -111.795081,
            "minLat": 32.054392,
            "maxLon": -111.071335,
            "maxLat": 32.506769
          }
        },
        {
          "sub_num": "93375",
          "name": "Tohono O'odham Nation",
          "bbox": {
            "minLon": -112.728513,
            "minLat": 31.507858,
            "maxLon": -111.217979,
            "maxLat": 32.506768
          }
        }
      ]
    }
  },
  {
    "Cochise": {
      "sub_num": "003",
      "name": "Cochise",
      "bbox": {
        "minLon": -110.460916,
        "minLat": 31.332348,
        "maxLon": -109.047918,
        "maxLat": 32.42765
      },
      "subdivisions": [
        {
          "sub_num": "90306",
          "name": "Bisbee",
          "bbox": {
            "minLon": -110.460916,
            "minLat": 31.332874,
            "maxLon": -109.717064,
            "maxLat": 31.682488
          }
        },
        {
          "sub_num": "90408",
          "name": "Bowie",
          "bbox": {
            "minLon": -109.768658,
            "minLat": 31.866053,
            "maxLon": -109.047918,
            "maxLat": 32.427572
          }
        },
        {
          "sub_num": "93825",
          "name": "Willcox",
          "bbox": {
            "minLon": -110.15218,
            "minLat": 31.867984,
            "maxLon": -109.569767,
            "maxLat": 32.427421
          }
        },
        {
          "sub_num": "90255",
          "name": "Benson",
          "bbox": {
            "minLon": -110.452317,
            "minLat": 31.744262,
            "maxLon": -110.00519,
            "maxLat": 32.42765
          }
        },
        {
          "sub_num": "90969",
          "name": "Douglas",
          "bbox": {
            "minLon": -109.792754,
            "minLat": 31.333934,
            "maxLon": -109.300378,
            "maxLat": 31.56015
          }
        },
        {
          "sub_num": "93182",
          "name": "Sierra Vista",
          "bbox": {
            "minLon": -110.460788,
            "minLat": 31.434421,
            "maxLon": -109.801399,
            "maxLat": 32.021439
          }
        },
        {
          "sub_num": "91122",
          "name": "Elfrida",
          "bbox": {
            "minLon": -110.037182,
            "minLat": 31.332348,
            "maxLon": -109.048825,
            "maxLat": 32.013644
          }
        }
      ]
    }
  },
  {
    "Coconino": {
      "sub_num": "005",
      "name": "Coconino",
      "bbox": {
        "minLon": -113.354176,
        "minLat": 34.258411,
        "maxLon": -110.750671,
        "maxLat": 37.003102
      },
      "subdivisions": [
        {
          "sub_num": "91198",
          "name": "Flagstaff",
          "bbox": {
            "minLon": -112.133711,
            "minLat": 34.258411,
            "maxLon": -110.750672,
            "maxLat": 36.198516
          }
        },
        {
          "sub_num": "91838",
          "name": "Kaibab Plateau",
          "bbox": {
            "minLon": -112.660401,
            "minLat": 36.043599,
            "maxLon": -111.388374,
            "maxLat": 37.001615
          }
        },
        {
          "sub_num": "91683",
          "name": "Hualapai",
          "bbox": {
            "minLon": -113.354176,
            "minLat": 35.528125,
            "maxLon": -112.875261,
            "maxLat": 36.278312
          }
        },
        {
          "sub_num": "91581",
          "name": "Hopi",
          "bbox": {
            "minLon": -111.007042,
            "minLat": 35.498563,
            "maxLon": -110.75069,
            "maxLat": 36.410324
          }
        },
        {
          "sub_num": "93519",
          "name": "Tuba City",
          "bbox": {
            "minLon": -111.892206,
            "minLat": 35.131207,
            "maxLon": -110.750671,
            "maxLat": 37.003102
          }
        },
        {
          "sub_num": "91530",
          "name": "Havasupai",
          "bbox": {
            "minLon": -112.875989,
            "minLat": 35.948197,
            "maxLon": -112.404544,
            "maxLat": 36.357791
          }
        },
        {
          "sub_num": "93876",
          "name": "Williams",
          "bbox": {
            "minLon": -113.301216,
            "minLat": 34.973024,
            "maxLon": -111.819356,
            "maxLat": 36.400471
          }
        }
      ]
    }
  },
  {
    "Gila": {
      "sub_num": "007",
      "name": "Gila",
      "bbox": {
        "minLon": -111.720728,
        "minLat": 32.983673,
        "maxLon": -110.00058,
        "maxLat": 34.499312
      },
      "subdivisions": [
        {
          "sub_num": "91277",
          "name": "Fort Apache",
          "bbox": {
            "minLon": -110.783268,
            "minLat": 33.56954,
            "maxLon": -110.00058,
            "maxLat": 34.299861
          }
        },
        {
          "sub_num": "92570",
          "name": "Payson",
          "bbox": {
            "minLon": -111.720728,
            "minLat": 33.938723,
            "maxLon": -110.844828,
            "maxLat": 34.499312
          }
        },
        {
          "sub_num": "93927",
          "name": "Winkelman",
          "bbox": {
            "minLon": -110.944707,
            "minLat": 32.983673,
            "maxLon": -110.706211,
            "maxLat": 33.268453
          }
        },
        {
          "sub_num": "91495",
          "name": "Globe-Miami",
          "bbox": {
            "minLon": -111.15309,
            "minLat": 33.247205,
            "maxLon": -110.525942,
            "maxLat": 33.838358
          }
        },
        {
          "sub_num": "93470",
          "name": "Tonto Basin",
          "bbox": {
            "minLon": -111.452203,
            "minLat": 33.602446,
            "maxLon": -110.741149,
            "maxLat": 34.311272
          }
        },
        {
          "sub_num": "93109",
          "name": "San Carlos",
          "bbox": {
            "minLon": -110.752774,
            "minLat": 33.077028,
            "maxLon": -110.000646,
            "maxLat": 33.817328
          }
        }
      ]
    }
  },
  {
    "Graham": {
      "sub_num": "009",
      "name": "Graham",
      "bbox": {
        "minLon": -110.458136,
        "minLat": 32.424755,
        "maxLon": -109.11418,
        "maxLat": 33.652751
      },
      "subdivisions": [
        {
          "sub_num": "90357",
          "name": "Bonita-Klondyke",
          "bbox": {
            "minLon": -110.451522,
            "minLat": 32.426387,
            "maxLon": -109.663157,
            "maxLat": 33.006711
          }
        },
        {
          "sub_num": "92652",
          "name": "Pima",
          "bbox": {
            "minLon": -110.31003,
            "minLat": 32.798842,
            "maxLon": -109.693559,
            "maxLat": 33.304515
          }
        },
        {
          "sub_num": "92907",
          "name": "Safford",
          "bbox": {
            "minLon": -110.006931,
            "minLat": 32.424755,
            "maxLon": -109.11418,
            "maxLat": 33.078409
          }
        },
        {
          "sub_num": "93111",
          "name": "San Carlos",
          "bbox": {
            "minLon": -110.458136,
            "minLat": 32.875137,
            "maxLon": -109.49544,
            "maxLat": 33.652751
          }
        }
      ]
    }
  },
  {
    "Mohave": {
      "sub_num": "015",
      "name": "Mohave",
      "bbox": {
        "minLon": -114.754681,
        "minLat": 34.209626,
        "maxLon": -112.529225,
        "maxLat": 37.000821
      },
      "subdivisions": [
        {
          "sub_num": "91964",
          "name": "Lake Havasu City",
          "bbox": {
            "minLon": -114.487777,
            "minLat": 34.209626,
            "maxLon": -113.332843,
            "maxLat": 35.148053
          }
        },
        {
          "sub_num": "92340",
          "name": "North Mohave",
          "bbox": {
            "minLon": -114.050616,
            "minLat": 35.750824,
            "maxLon": -112.529225,
            "maxLat": 37.000821
          }
        },
        {
          "sub_num": "91885",
          "name": "Kingman",
          "bbox": {
            "minLon": -114.754681,
            "minLat": 34.956039,
            "maxLon": -113.332812,
            "maxLat": 36.196012
          }
        },
        {
          "sub_num": "90470",
          "name": "Bullhead City",
          "bbox": {
            "minLon": -114.646764,
            "minLat": 34.717219,
            "maxLon": -113.948003,
            "maxLat": 35.199507
          }
        }
      ]
    }
  },
  {
    "Yavapai": {
      "sub_num": "025",
      "name": "Yavapai",
      "bbox": {
        "minLon": -113.334359,
        "minLat": 33.882469,
        "maxLon": -111.46054,
        "maxLat": 35.531194
      },
      "subdivisions": [
        {
          "sub_num": "90765",
          "name": "Congress",
          "bbox": {
            "minLon": -113.333742,
            "minLat": 33.882469,
            "maxLon": -112.063613,
            "maxLat": 34.499202
          }
        },
        {
          "sub_num": "92193",
          "name": "Mingus Mountain",
          "bbox": {
            "minLon": -112.407835,
            "minLat": 34.514346,
            "maxLon": -111.899708,
            "maxLat": 34.975867
          }
        },
        {
          "sub_num": "90204",
          "name": "Ash Fork",
          "bbox": {
            "minLon": -113.334161,
            "minLat": 34.740048,
            "maxLon": -112.334715,
            "maxLat": 35.531194
          }
        },
        {
          "sub_num": "90840",
          "name": "Cordes Lakes-Mayer",
          "bbox": {
            "minLon": -112.396969,
            "minLat": 33.999824,
            "maxLon": -111.46054,
            "maxLat": 34.565447
          }
        },
        {
          "sub_num": "90484",
          "name": "Camp Verde-Sedona",
          "bbox": {
            "minLon": -112.078944,
            "minLat": 34.306134,
            "maxLon": -111.551803,
            "maxLat": 34.981064
          }
        },
        {
          "sub_num": "92754",
          "name": "Prescott",
          "bbox": {
            "minLon": -113.334359,
            "minLat": 34.35473,
            "maxLon": -112.173175,
            "maxLat": 35.092243
          }
        }
      ]
    }
  },
  {
    "La Paz": {
      "sub_num": "012",
      "name": "La Paz",
      "bbox": {
        "minLon": -114.731223,
        "minLat": 33.025384,
        "maxLon": -113.333078,
        "maxLat": 34.319126
      },
      "subdivisions": [
        {
          "sub_num": "92480",
          "name": "Parker",
          "bbox": {
            "minLon": -114.731223,
            "minLat": 33.025384,
            "maxLon": -113.333078,
            "maxLat": 34.319126
          }
        }
      ]
    }
  },
  {
    "Santa Cruz": {
      "sub_num": "023",
      "name": "Santa Cruz",
      "bbox": {
        "minLon": -111.366922,
        "minLat": 31.332342,
        "maxLon": -110.452224,
        "maxLat": 31.731702
      },
      "subdivisions": [
        {
          "sub_num": "92295",
          "name": "Nogales",
          "bbox": {
            "minLon": -111.366922,
            "minLat": 31.332342,
            "maxLon": -110.622045,
            "maxLat": 31.726753
          }
        },
        {
          "sub_num": "92550",
          "name": "Patagonia",
          "bbox": {
            "minLon": -110.96273,
            "minLat": 31.332832,
            "maxLon": -110.452224,
            "maxLat": 31.731702
          }
        }
      ]
    }
  },
  {
    "Apache": {
      "sub_num": "001",
      "name": "Apache",
      "bbox": {
        "minLon": -110.000705,
        "minLat": 33.475417,
        "maxLon": -109.045172,
        "maxLat": 36.999389
      },
      "subdivisions": [
        {
          "sub_num": "90612",
          "name": "Chinle",
          "bbox": {
            "minLon": -110.000705,
            "minLat": 35.787755,
            "maxLon": -109.045877,
            "maxLat": 36.705081
          }
        },
        {
          "sub_num": "91275",
          "name": "Fort Apache",
          "bbox": {
            "minLon": -109.891766,
            "minLat": 33.475417,
            "maxLon": -109.494941,
            "maxLat": 34.150395
          }
        },
        {
          "sub_num": "93315",
          "name": "Sweetwater",
          "bbox": {
            "minLon": -109.877793,
            "minLat": 36.250387,
            "maxLon": -109.045172,
            "maxLat": 36.999389
          }
        },
        {
          "sub_num": "91326",
          "name": "Fort Defiance",
          "bbox": {
            "minLon": -110.000693,
            "minLat": 35.15388,
            "maxLon": -109.045972,
            "maxLat": 36.149992
          }
        },
        {
          "sub_num": "90918",
          "name": "Dennehotso",
          "bbox": {
            "minLon": -110.000688,
            "minLat": 36.419718,
            "maxLon": -109.630643,
            "maxLat": 36.998502
          }
        },
        {
          "sub_num": "92805",
          "name": "Puerco",
          "bbox": {
            "minLon": -109.851929,
            "minLat": 34.634658,
            "maxLon": -109.045948,
            "maxLat": 35.263842
          }
        },
        {
          "sub_num": "91071",
          "name": "Eagar-Springerville",
          "bbox": {
            "minLon": -109.85919,
            "minLat": 33.652436,
            "maxLon": -109.046697,
            "maxLat": 34.286321
          }
        },
        {
          "sub_num": "92958",
          "name": "St. Johns",
          "bbox": {
            "minLon": -109.865231,
            "minLat": 34.132381,
            "maxLon": -109.045363,
            "maxLat": 34.870578
          }
        }
      ]
    }
  }
]